[
  {
    "id": "05750553900429",
    "siret": "05750553900429",
    "siren": "057505539",
    "nom": "VICAT (VICAT)",
    "adresse": "LES TROIS VALLONS 4 RUE ARISTIDE BERGES 38080 L'ISLE-D'ABEAU",
    "codePostal": "38080",
    "ville": "38193",
    "departement": "38",
    "codeApe": "23.51Z",
    "libelleApe": "",
    "trancheEffectifs": "42",
    "dateCreation": "1900-01-01",
    "lat": 45.6060036542992,
    "lng": 5.21769499742675
  },
  {
    "id": "37791706700466",
    "siret": "37791706700466",
    "siren": "377917067",
    "nom": "EQIOM",
    "adresse": "ZAC DANTON 10 AVENUE DE L'ARCHE 92400 COURBEVOIE",
    "codePostal": "92400",
    "ville": "92026",
    "departement": "92",
    "codeApe": "23.51Z",
    "libelleApe": "",
    "trancheEffectifs": "41",
    "dateCreation": "1990-04-30",
    "lat": 48.8954790538768,
    "lng": 2.23883737139983
  },
  {
    "id": "30213556100835",
    "siret": "30213556100835",
    "siren": "302135561",
    "nom": "LAFARGE CIMENTS (LC)",
    "adresse": "14-16 14 BOULEVARD GARIBALDI 92130 ISSY-LES-MOULINEAUX",
    "codePostal": "92130",
    "ville": "92040",
    "departement": "92",
    "codeApe": "23.51Z",
    "libelleApe": "",
    "trancheEffectifs": "41",
    "dateCreation": "1900-01-01",
    "lat": 48.8225713800445,
    "lng": 2.26162828787134
  },
  {
    "id": "65480068900543",
    "siret": "65480068900543",
    "siren": "654800689",
    "nom": "HEIDELBERG MATERIALS FRANCE CIMENTS (HM FRANCE CIMENTS)",
    "adresse": "TOUR ALTO 4 PLACE DES SAISONS 92400 COURBEVOIE",
    "codePostal": "92400",
    "ville": "92026",
    "departement": "92",
    "codeApe": "23.51Z",
    "libelleApe": "",
    "trancheEffectifs": "42",
    "dateCreation": "1965-01-01",
    "lat": 48.8893520671003,
    "lng": 2.25127448746517
  },
  {
    "id": "77813049200227",
    "siret": "77813049200227",
    "siren": "778130492",
    "nom": "IMERYS ALUMINATES",
    "adresse": "43 QUAI DE GRENELLE 75015 PARIS",
    "codePostal": "75015",
    "ville": "75115",
    "departement": "75",
    "codeApe": "23.51Z",
    "libelleApe": "",
    "trancheEffectifs": "32",
    "dateCreation": "1976-01-01",
    "lat": 48.851265866,
    "lng": 2.2862120719
  },
  {
    "id": "82363574300029",
    "siret": "82363574300029",
    "siren": "823635743",
    "nom": "RHONE CIMENTS",
    "adresse": "ZI LA MOTTE 6 RUE LOUIS ARMAND 26800 PORTES-LES-VALENCE",
    "codePostal": "26800",
    "ville": "26252",
    "departement": "26",
    "codeApe": "23.51Z",
    "libelleApe": "",
    "trancheEffectifs": "12",
    "dateCreation": "2016-11-03",
    "lat": 44.892594004,
    "lng": 4.8586540218
  },
  {
    "id": "80521739500062",
    "siret": "80521739500062",
    "siren": "805217395",
    "nom": "HOLCIM HAUT RHIN",
    "adresse": "2 RUE DES GRAVIERES 68300 SAINT-LOUIS",
    "codePostal": "68300",
    "ville": "68297",
    "departement": "68",
    "codeApe": "23.51Z",
    "libelleApe": "",
    "trancheEffectifs": "22",
    "dateCreation": "2014-10-15",
    "lat": 47.6268770377775,
    "lng": 7.51742596961464
  },
  {
    "id": "81602028300080",
    "siret": "81602028300080",
    "siren": "816020283",
    "nom": "LHOIST FRANCE OUEST",
    "adresse": "15 RUE HENRI DAGALLIER 38100 GRENOBLE",
    "codePostal": "38100",
    "ville": "38185",
    "departement": "38",
    "codeApe": "23.52Z",
    "libelleApe": "",
    "trancheEffectifs": "22",
    "dateCreation": "1960-01-01",
    "lat": 45.1597581211187,
    "lng": 5.70776387333975
  },
  {
    "id": "33127830900082",
    "siret": "33127830900082",
    "siren": "331278309",
    "nom": "CARRIERES ET CHAUX BALTHAZARD ET COTTE",
    "adresse": "15 RUE HENRI DAGALLIER 38100 GRENOBLE",
    "codePostal": "38100",
    "ville": "38185",
    "departement": "38",
    "codeApe": "23.52Z",
    "libelleApe": "",
    "trancheEffectifs": "21",
    "dateCreation": "1984-09-24",
    "lat": 45.1597581211187,
    "lng": 5.70776387333975
  },
  {
    "id": "34914014500013",
    "siret": "34914014500013",
    "siren": "349140145",
    "nom": "SOC EUROPEENNE DES CHAUX ET LIANTS",
    "adresse": "HAMEAU DE FLOSAILLES 2745 ROUTE DU BUGEY 38300 SAINT-SAVIN",
    "codePostal": "38300",
    "ville": "38455",
    "departement": "38",
    "codeApe": "23.52Z",
    "libelleApe": "",
    "trancheEffectifs": "11",
    "dateCreation": "1989-01-01",
    "lat": 45.644095923,
    "lng": 5.2988913749
  },
  {
    "id": "34902027100046",
    "siret": "34902027100046",
    "siren": "349020271",
    "nom": "CARRIERES & FOURS A CHAUX DE DUGNY",
    "adresse": "TOUR W 102 TERRASSE BOIELDIEU 92800 PUTEAUX",
    "codePostal": "92800",
    "ville": "92062",
    "departement": "92",
    "codeApe": "23.52Z",
    "libelleApe": "",
    "trancheEffectifs": "21",
    "dateCreation": "1988-12-21",
    "lat": 48.889337928,
    "lng": 2.2383381517
  },
  {
    "id": "34239979700048",
    "siret": "34239979700048",
    "siren": "342399797",
    "nom": "SOC DES FOURS A CHAUX DE SORCY",
    "adresse": "TERRASSE BOIELDIEU 92800 PUTEAUX",
    "codePostal": "92800",
    "ville": "92062",
    "departement": "92",
    "codeApe": "23.52Z",
    "libelleApe": "",
    "trancheEffectifs": "21",
    "dateCreation": "1987-09-15",
    "lat": 48.889346595,
    "lng": 2.2397018307
  },
  {
    "id": "31213977700022",
    "siret": "31213977700022",
    "siren": "312139777",
    "nom": "HEIDELBERG MATERIALS FRANCE SOCLI",
    "adresse": "65370 IZAOURT",
    "codePostal": "65370",
    "ville": "65230",
    "departement": "65",
    "codeApe": "23.52Z",
    "libelleApe": "",
    "trancheEffectifs": "12",
    "dateCreation": "1978-01-01",
    "lat": 43.0141354677984,
    "lng": 0.607656778670675
  },
  {
    "id": "89685028600510",
    "siret": "89685028600510",
    "siren": "896850286",
    "nom": "ALKERN FRANCE",
    "adresse": "ZI PARC DE LA MOTTE AU BOIS RUE ANDRE BIGOTTE 62440 HARNES",
    "codePostal": "62440",
    "ville": "62413",
    "departement": "62",
    "codeApe": "23.61Z",
    "libelleApe": "",
    "trancheEffectifs": "41",
    "dateCreation": "1968-01-01",
    "lat": 50.467745469,
    "lng": 2.912099287
  },
  {
    "id": "97632030900587",
    "siret": "97632030900587",
    "siren": "976320309",
    "nom": "KP1",
    "adresse": "91 ALLEE DES FENAISONS 84000 AVIGNON",
    "codePostal": "84000",
    "ville": "84007",
    "departement": "84",
    "codeApe": "23.61Z",
    "libelleApe": "",
    "trancheEffectifs": "42",
    "dateCreation": "1963-01-01",
    "lat": 43.92743288,
    "lng": 4.8478824696
  },
  {
    "id": "30198456300223",
    "siret": "30198456300223",
    "siren": "301984563",
    "nom": "STRADAL",
    "adresse": "47 AVENUE DES GENOTTES 95800 CERGY",
    "codePostal": "95800",
    "ville": "95127",
    "departement": "95",
    "codeApe": "23.61Z",
    "libelleApe": "",
    "trancheEffectifs": "41",
    "dateCreation": "1975-01-01",
    "lat": 49.0544630511458,
    "lng": 2.03970059653708
  },
  {
    "id": "48810696400015",
    "siret": "48810696400015",
    "siren": "488106964",
    "nom": "SOCIETE D'ETUDES ET D'APPLICATIONS DE COMPOSANTS GUIRAUD FRERES (SEAC GF)",
    "adresse": "47 BOULEVARD DE SUISSE 31200 TOULOUSE",
    "codePostal": "31200",
    "ville": "31555",
    "departement": "31",
    "codeApe": "23.61Z",
    "libelleApe": "",
    "trancheEffectifs": "41",
    "dateCreation": "2005-12-30",
    "lat": 43.614790533,
    "lng": 1.4199570054
  },
  {
    "id": "56208734600986",
    "siret": "56208734600986",
    "siren": "562087346",
    "nom": "BONNA SABLA",
    "adresse": "681 ROUTE DE LA PROVENCE 13113 LAMANON",
    "codePostal": "13113",
    "ville": "13049",
    "departement": "13",
    "codeApe": "23.61Z",
    "libelleApe": "",
    "trancheEffectifs": "41",
    "dateCreation": "1956-01-01",
    "lat": 43.701259028,
    "lng": 5.0933779895
  },
  {
    "id": "30732221400015",
    "siret": "30732221400015",
    "siren": "307322214",
    "nom": "RECTOR LESAGE (RECTOR)",
    "adresse": "16 RUE DE HIRTZBACH 68200 MULHOUSE",
    "codePostal": "68200",
    "ville": "68224",
    "departement": "68",
    "codeApe": "23.61Z",
    "libelleApe": "",
    "trancheEffectifs": "41",
    "dateCreation": "1976-01-01",
    "lat": 47.7531529031698,
    "lng": 7.30173747423748
  },
  {
    "id": "39278076300018",
    "siret": "39278076300018",
    "siren": "392780763",
    "nom": "ALTA CONSTRUCTIONS",
    "adresse": "90 RUE DES LACS 79290 LORETZ-D'ARGENTON",
    "codePostal": "79290",
    "ville": "79014",
    "departement": "79",
    "codeApe": "23.61Z",
    "libelleApe": "",
    "trancheEffectifs": "12",
    "dateCreation": "1993-10-01",
    "lat": 47.0436290223318,
    "lng": -0.263775053533614
  },
  {
    "id": "70020012400019",
    "siret": "70020012400019",
    "siren": "700200124",
    "nom": "LIB INDUSTRIES",
    "adresse": "LD LA BEGUDE DE VERS 30210 VERS-PONT-DU-GARD",
    "codePostal": "30210",
    "ville": "30346",
    "departement": "30",
    "codeApe": "23.61Z",
    "libelleApe": "",
    "trancheEffectifs": "22",
    "dateCreation": "1970-01-01",
    "lat": 43.955834312,
    "lng": 4.5390537422
  },
  {
    "id": "39474784400014",
    "siret": "39474784400014",
    "siren": "394747844",
    "nom": "PRADIER",
    "adresse": "6 RUE VICTOR HUGO 84000 AVIGNON",
    "codePostal": "84000",
    "ville": "84007",
    "departement": "84",
    "codeApe": "23.61Z",
    "libelleApe": "",
    "trancheEffectifs": "21",
    "dateCreation": "1994-04-01",
    "lat": 43.947888867,
    "lng": 4.8019952256
  },
  {
    "id": "37904300300175",
    "siret": "37904300300175",
    "siren": "379043003",
    "nom": "FABEMI PROVENCE",
    "adresse": "LE PONT DOUBLE 26290 DONZERE",
    "codePostal": "26290",
    "ville": "26116",
    "departement": "26",
    "codeApe": "23.61Z",
    "libelleApe": "",
    "trancheEffectifs": "12",
    "dateCreation": "1990-08-16",
    "lat": 44.413355589,
    "lng": 4.7216789423
  },
  {
    "id": "38092923200029",
    "siret": "38092923200029",
    "siren": "380929232",
    "nom": "SOBEMO",
    "adresse": "LA  CARONNIERE 73800 MONTMELIAN",
    "codePostal": "73800",
    "ville": "73171",
    "departement": "73",
    "codeApe": "23.61Z",
    "libelleApe": "",
    "trancheEffectifs": "22",
    "dateCreation": "1991-02-06",
    "lat": 45.5042763598836,
    "lng": 6.06810435655912
  },
  {
    "id": "39010516100041",
    "siret": "39010516100041",
    "siren": "390105161",
    "nom": "SPURGIN LEONHART",
    "adresse": "ROUTE DE STRASBOURG 67600 SELESTAT",
    "codePostal": "67600",
    "ville": "67462",
    "departement": "67",
    "codeApe": "23.61Z",
    "libelleApe": "",
    "trancheEffectifs": "32",
    "dateCreation": "1993-01-22",
    "lat": 48.283155135,
    "lng": 7.4743318235
  },
  {
    "id": "49916347500019",
    "siret": "49916347500019",
    "siren": "499163475",
    "nom": "FABEMI STRUCTURES",
    "adresse": "LE PONT DOUBLE 26290 DONZERE",
    "codePostal": "26290",
    "ville": "26116",
    "departement": "26",
    "codeApe": "23.61Z",
    "libelleApe": "",
    "trancheEffectifs": "21",
    "dateCreation": "2007-04-26",
    "lat": 44.409061028,
    "lng": 4.7118440809
  },
  {
    "id": "96020005300150",
    "siret": "96020005300150",
    "siren": "960200053",
    "nom": "XELLA THERMOPIERRE",
    "adresse": "LE PRE CHATELAIN ROUTE PRE CHATELAIN 38300 SAINT-SAVIN",
    "codePostal": "38300",
    "ville": "38455",
    "departement": "38",
    "codeApe": "23.61Z",
    "libelleApe": "",
    "trancheEffectifs": "22",
    "dateCreation": "1977-01-01",
    "lat": 45.632270677,
    "lng": 5.2975630364
  },
  {
    "id": "51000730500012",
    "siret": "51000730500012",
    "siren": "510007305",
    "nom": "COMPOBAIE SOLUTIONS",
    "adresse": "ZONE D'ACTIVITE DE LA VIALETTE 81150 MARSSAC-SUR-TARN",
    "codePostal": "81150",
    "ville": "81156",
    "departement": "81",
    "codeApe": "23.61Z",
    "libelleApe": "",
    "trancheEffectifs": "22",
    "dateCreation": "2009-01-16",
    "lat": 43.916547429,
    "lng": 2.0392221115
  },
  {
    "id": "39413459700019",
    "siret": "39413459700019",
    "siren": "394134597",
    "nom": "LYON AGGLOS",
    "adresse": "LE PONT DOUBLE 26290 DONZERE",
    "codePostal": "26290",
    "ville": "26116",
    "departement": "26",
    "codeApe": "23.61Z",
    "libelleApe": "",
    "trancheEffectifs": "12",
    "dateCreation": "1994-01-07",
    "lat": 44.413355589,
    "lng": 4.7216789423
  },
  {
    "id": "84472383300027",
    "siret": "84472383300027",
    "siren": "844723833",
    "nom": "SBC PREFA (SBC PREFA)",
    "adresse": "600 RUE DU LAC 38300 NIVOLAS-VERMELLE",
    "codePostal": "38300",
    "ville": "38276",
    "departement": "38",
    "codeApe": "23.61Z",
    "libelleApe": "",
    "trancheEffectifs": "11",
    "dateCreation": "2018-12-17",
    "lat": 45.572423728,
    "lng": 5.3090242055
  },
  {
    "id": "55378019800014",
    "siret": "55378019800014",
    "siren": "553780198",
    "nom": "PLATTARD SAS",
    "adresse": "414 AVENUE DE LA PLAGE 69400 VILLEFRANCHE-SUR-SAONE",
    "codePostal": "69400",
    "ville": "69264",
    "departement": "69",
    "codeApe": "23.61Z",
    "libelleApe": "",
    "trancheEffectifs": "22",
    "dateCreation": "1955-01-01",
    "lat": 45.979648457,
    "lng": 4.7461625661
  },
  {
    "id": "38003208600056",
    "siret": "38003208600056",
    "siren": "380032086",
    "nom": "IDB",
    "adresse": "BATIMENT B ESCALIER 7 175 BOULEVARD DE LA REPUBLIQUE 92210 SAINT-CLOUD",
    "codePostal": "92210",
    "ville": "92064",
    "departement": "92",
    "codeApe": "23.61Z",
    "libelleApe": "",
    "trancheEffectifs": "12",
    "dateCreation": "1990-10-01",
    "lat": 48.854900491,
    "lng": 2.2117497066
  },
  {
    "id": "63378032500047",
    "siret": "63378032500047",
    "siren": "633780325",
    "nom": "ETABLISSEMENTS FRANCIOLI",
    "adresse": "ZA DE ZA DE LA BARRE 01480 CHALEINS",
    "codePostal": "01480",
    "ville": "01075",
    "departement": "01",
    "codeApe": "23.61Z",
    "libelleApe": "",
    "trancheEffectifs": "21",
    "dateCreation": "1963-01-01",
    "lat": 46.034281746,
    "lng": 4.8079748597
  },
  {
    "id": "39312518200039",
    "siret": "39312518200039",
    "siren": "393125182",
    "nom": "INDUSTRIE BETON DU FOREZ IBF",
    "adresse": "11 BOULEVARD JEAN JAURES 42160 ANDREZIEUX-BOUTHEON",
    "codePostal": "42160",
    "ville": "42005",
    "departement": "42",
    "codeApe": "23.61Z",
    "libelleApe": "",
    "trancheEffectifs": "11",
    "dateCreation": "1993-10-01",
    "lat": 45.52841712,
    "lng": 4.2512236205
  },
  {
    "id": "48073028200013",
    "siret": "48073028200013",
    "siren": "480730282",
    "nom": "PBA",
    "adresse": "LES PRES GIRARD 39160 SAINT-AMOUR",
    "codePostal": "39160",
    "ville": "39475",
    "departement": "39",
    "codeApe": "23.61Z",
    "libelleApe": "",
    "trancheEffectifs": "11",
    "dateCreation": "2004-10-04",
    "lat": 46.44231103,
    "lng": 5.3378161286
  },
  {
    "id": "31764057100038",
    "siret": "31764057100038",
    "siren": "317640571",
    "nom": "G.G.I.",
    "adresse": "CARRIERES D ANTOGER 73100 GRESY-SUR-AIX",
    "codePostal": "73100",
    "ville": "73128",
    "departement": "73",
    "codeApe": "23.61Z",
    "libelleApe": "",
    "trancheEffectifs": "21",
    "dateCreation": "1980-01-01",
    "lat": 45.719647563,
    "lng": 5.9148031623
  },
  {
    "id": "63205232000090",
    "siret": "63205232000090",
    "siren": "632052320",
    "nom": "CHAPSOL S A",
    "adresse": "SENTE DE LA FORGETTE 77170 COUBERT",
    "codePostal": "77170",
    "ville": "77127",
    "departement": "77",
    "codeApe": "23.61Z",
    "libelleApe": "",
    "trancheEffectifs": "22",
    "dateCreation": "1963-01-01",
    "lat": 48.668323904,
    "lng": 2.6951329982
  },
  {
    "id": "69738019400012",
    "siret": "69738019400012",
    "siren": "697380194",
    "nom": "L'INDUSTRIELLE DU BETON",
    "adresse": "ROUTE DE PRECY 60820 BORAN-SUR-OISE",
    "codePostal": "60820",
    "ville": "60086",
    "departement": "60",
    "codeApe": "23.61Z",
    "libelleApe": "",
    "trancheEffectifs": "22",
    "dateCreation": "1900-01-01",
    "lat": 49.178195236,
    "lng": 2.3634259312
  },
  {
    "id": "33977979500030",
    "siret": "33977979500030",
    "siren": "339779795",
    "nom": "SOTRACO INDUSTRIES (SOTRACO INDUSTRIES)",
    "adresse": "LE PONT DOUBLE 26290 DONZERE",
    "codePostal": "26290",
    "ville": "26116",
    "departement": "26",
    "codeApe": "23.61Z",
    "libelleApe": "",
    "trancheEffectifs": "12",
    "dateCreation": "1986-12-24",
    "lat": 44.413355589,
    "lng": 4.7216789423
  },
  {
    "id": "38533036000038",
    "siret": "38533036000038",
    "siren": "385330360",
    "nom": "FABEMI ENVIRONNEMENT",
    "adresse": "LE PONT DOUBLE 26290 DONZERE",
    "codePostal": "26290",
    "ville": "26116",
    "departement": "26",
    "codeApe": "23.61Z",
    "libelleApe": "",
    "trancheEffectifs": "12",
    "dateCreation": "1992-04-01",
    "lat": 44.413355589,
    "lng": 4.7216789423
  },
  {
    "id": "38267912400026",
    "siret": "38267912400026",
    "siren": "382679124",
    "nom": "EUROBETON FRANCE",
    "adresse": "ZI LE RIVAL RTE DEP 519 38870 SAINT-SIMEON-DE-BRESSIEUX",
    "codePostal": "38870",
    "ville": "38457",
    "departement": "38",
    "codeApe": "23.61Z",
    "libelleApe": "",
    "trancheEffectifs": "22",
    "dateCreation": "1991-06-18",
    "lat": 45.349457234,
    "lng": 5.2777979573
  },
  {
    "id": "81354306300032",
    "siret": "81354306300032",
    "siren": "813543063",
    "nom": "MARGARITELLI FERROVIARIA",
    "adresse": "I 0616135 109 PONTE SAN GIOVANNI VIA ADRIATICA PERUGIA ITALIE",
    "codePostal": "",
    "ville": "",
    "departement": "",
    "codeApe": "23.61Z",
    "libelleApe": "",
    "trancheEffectifs": "11",
    "dateCreation": "2015-10-01",
    "lat": null,
    "lng": null
  },
  {
    "id": "49190687100018",
    "siret": "49190687100018",
    "siren": "491906871",
    "nom": "FABEMI ILE DE FRANCE",
    "adresse": "LE PONT DOUBLE 26290 DONZERE",
    "codePostal": "26290",
    "ville": "26116",
    "departement": "26",
    "codeApe": "23.61Z",
    "libelleApe": "",
    "trancheEffectifs": "11",
    "dateCreation": "2006-09-15",
    "lat": 44.413355589,
    "lng": 4.7216789423
  },
  {
    "id": "30735092600019",
    "siret": "30735092600019",
    "siren": "307350926",
    "nom": "PBM 26",
    "adresse": "1135 ROUTE DE DONZERE 26780 MALATAVERNE",
    "codePostal": "26780",
    "ville": "26169",
    "departement": "26",
    "codeApe": "23.61Z",
    "libelleApe": "",
    "trancheEffectifs": "12",
    "dateCreation": "1976-01-01",
    "lat": 44.476668343543,
    "lng": 4.74123212350488
  },
  {
    "id": "49322111300019",
    "siret": "49322111300019",
    "siren": "493221113",
    "nom": "VALENCE AGGLOS",
    "adresse": "LE PONT DOUBLE 26290 DONZERE",
    "codePostal": "26290",
    "ville": "26116",
    "departement": "26",
    "codeApe": "23.61Z",
    "libelleApe": "",
    "trancheEffectifs": "11",
    "dateCreation": "2007-01-01",
    "lat": 44.413355589,
    "lng": 4.7216789423
  },
  {
    "id": "49409858500016",
    "siret": "49409858500016",
    "siren": "494098585",
    "nom": "FEHR TECHNOLOGIES - RHONE ALPES",
    "adresse": "ZONE D'ACTIVITE EMILE MATHIS RUE DE FROESCHWILLER 67110 REICHSHOFFEN",
    "codePostal": "67110",
    "ville": "67388",
    "departement": "67",
    "codeApe": "23.61Z",
    "libelleApe": "",
    "trancheEffectifs": "21",
    "dateCreation": "2008-06-02",
    "lat": 48.937848953,
    "lng": 7.6840620284
  },
  {
    "id": "40313975100016",
    "siret": "40313975100016",
    "siren": "403139751",
    "nom": "PBM 71 (M.S.A.) (M.S.A.)",
    "adresse": "172 ROUTE DE LA LOIRE 71160 GILLY-SUR-LOIRE",
    "codePostal": "71160",
    "ville": "71220",
    "departement": "71",
    "codeApe": "23.61Z",
    "libelleApe": "",
    "trancheEffectifs": "21",
    "dateCreation": "1995-12-06",
    "lat": 46.539076037,
    "lng": 3.7627309468
  },
  {
    "id": "43180939100011",
    "siret": "43180939100011",
    "siren": "431809391",
    "nom": "FABEMI T.P.",
    "adresse": "LE PONT DOUBLE 26290 DONZERE",
    "codePostal": "26290",
    "ville": "26116",
    "departement": "26",
    "codeApe": "23.61Z",
    "libelleApe": "",
    "trancheEffectifs": "12",
    "dateCreation": "2000-05-03",
    "lat": 44.413355589,
    "lng": 4.7216789423
  },
  {
    "id": "43027669100036",
    "siret": "43027669100036",
    "siren": "430276691",
    "nom": "CONDITIONNEMENT-DECHETS-BETON",
    "adresse": "CHEZ SOCODEI - CD 138 SITE CENTRACO CITE CENTRACO 30200 CODOLET",
    "codePostal": "30200",
    "ville": "30084",
    "departement": "30",
    "codeApe": "23.61Z",
    "libelleApe": "",
    "trancheEffectifs": "12",
    "dateCreation": "2000-03-24",
    "lat": null,
    "lng": null
  },
  {
    "id": "41289542700026",
    "siret": "41289542700026",
    "siren": "412895427",
    "nom": "BLARD",
    "adresse": "42 QUAI DE LA RUELLE 27500 PONT-AUDEMER",
    "codePostal": "27500",
    "ville": "27467",
    "departement": "27",
    "codeApe": "23.61Z",
    "libelleApe": "",
    "trancheEffectifs": "12",
    "dateCreation": "1997-07-03",
    "lat": 49.359860002,
    "lng": 0.5004760564
  },
  {
    "id": "51316761900016",
    "siret": "51316761900016",
    "siren": "513167619",
    "nom": "PREFA DU LEMAN",
    "adresse": "ZA DES CHARBONNIERS ALLEE DES CHARBONNIERS 74160 FEIGERES",
    "codePostal": "74160",
    "ville": "74124",
    "departement": "74",
    "codeApe": "23.61Z",
    "libelleApe": "",
    "trancheEffectifs": "12",
    "dateCreation": "2009-06-03",
    "lat": 46.104396934,
    "lng": 6.0632380254
  },
  {
    "id": "38592023600036",
    "siret": "38592023600036",
    "siren": "385920236",
    "nom": "S C C A T",
    "adresse": "LE PONT DOUBLE 26290 DONZERE",
    "codePostal": "26290",
    "ville": "26116",
    "departement": "26",
    "codeApe": "23.61Z",
    "libelleApe": "",
    "trancheEffectifs": "12",
    "dateCreation": "1959-01-01",
    "lat": 44.413355589,
    "lng": 4.7216789423
  },
  {
    "id": "74715159500051",
    "siret": "74715159500051",
    "siren": "747151595",
    "nom": "GEN INDUST REALIS FABRICAT ART CONSTRUCT (GIRFAC)",
    "adresse": "8 PLACE CHARLES DE GAULLE 95210 SAINT-GRATIEN",
    "codePostal": "95210",
    "ville": "95555",
    "departement": "95",
    "codeApe": "23.61Z",
    "libelleApe": "",
    "trancheEffectifs": "12",
    "dateCreation": "1981-06-26",
    "lat": 48.969232419,
    "lng": 2.2868298784
  },
  {
    "id": "85300048700019",
    "siret": "85300048700019",
    "siren": "853000487",
    "nom": "IDSB PRODUCTION RHONE-ALPES (IDSB PRODUCTION)",
    "adresse": "4 RUE DE HOERDT 67550 ECKWERSHEIM",
    "codePostal": "67550",
    "ville": "67119",
    "departement": "67",
    "codeApe": "23.61Z",
    "libelleApe": "",
    "trancheEffectifs": "12",
    "dateCreation": "2019-08-01",
    "lat": 48.683785375,
    "lng": 7.6977079518
  },
  {
    "id": "75920027200020",
    "siret": "75920027200020",
    "siren": "759200272",
    "nom": "LES PREFABRICATIONS BRESSANES (L.P.B.)",
    "adresse": "284 ROUTE DE MACON 01290 CROTTET",
    "codePostal": "01290",
    "ville": "01134",
    "departement": "01",
    "codeApe": "23.61Z",
    "libelleApe": "",
    "trancheEffectifs": "12",
    "dateCreation": "1959-01-01",
    "lat": 46.290147815,
    "lng": 4.9086389012
  },
  {
    "id": "52217211300014",
    "siret": "52217211300014",
    "siren": "522172113",
    "nom": "POMEL BETON",
    "adresse": "RD 17 ROUTE DE BRASSAC 43360 VERGONGHEON",
    "codePostal": "43360",
    "ville": "43258",
    "departement": "43",
    "codeApe": "23.61Z",
    "libelleApe": "",
    "trancheEffectifs": "11",
    "dateCreation": "2010-04-19",
    "lat": 45.373494554,
    "lng": 3.3200302755
  },
  {
    "id": "38000508200033",
    "siret": "38000508200033",
    "siren": "380005082",
    "nom": "DONZERE AGGLOS",
    "adresse": "LE PONT DOUBLE 26290 DONZERE",
    "codePostal": "26290",
    "ville": "26116",
    "departement": "26",
    "codeApe": "23.61Z",
    "libelleApe": "",
    "trancheEffectifs": "12",
    "dateCreation": "1990-09-18",
    "lat": 44.4084855,
    "lng": 4.7106037527
  },
  {
    "id": "79428088300016",
    "siret": "79428088300016",
    "siren": "794280883",
    "nom": "S.N. GIRARD (GIRARD)",
    "adresse": "5 ROUTE DES PRES D’EAU 74550 PERRIGNIER",
    "codePostal": "74550",
    "ville": "74210",
    "departement": "74",
    "codeApe": "23.61Z",
    "libelleApe": "",
    "trancheEffectifs": "12",
    "dateCreation": "2013-07-02",
    "lat": 46.300201079,
    "lng": 6.4213384154
  },
  {
    "id": "66572025600015",
    "siret": "66572025600015",
    "siren": "665720256",
    "nom": "ENTREPRISE VEUVE BERTRAND ET SES ENFANTS",
    "adresse": "LE PONT DE LAMOTHE 43100 BRIOUDE",
    "codePostal": "43100",
    "ville": "43040",
    "departement": "43",
    "codeApe": "23.61Z",
    "libelleApe": "",
    "trancheEffectifs": "11",
    "dateCreation": "1957-01-01",
    "lat": 45.297617541,
    "lng": 3.3948688793
  },
  {
    "id": "66732006300023",
    "siret": "66732006300023",
    "siren": "667320063",
    "nom": "SARL LA SABLIERE DE CHAPPES",
    "adresse": "ZI DES BONNES 43410 LEMPDES-SUR-ALLAGNON",
    "codePostal": "43410",
    "ville": "43120",
    "departement": "43",
    "codeApe": "23.61Z",
    "libelleApe": "",
    "trancheEffectifs": "12",
    "dateCreation": "1973-01-01",
    "lat": 45.376630798,
    "lng": 3.2798192716
  },
  {
    "id": "30980153800021",
    "siret": "30980153800021",
    "siren": "309801538",
    "nom": "ETABLISSEMENTS COTTIN",
    "adresse": "1859 ROUTE DE CHAUTAGNE 74910 SEYSSEL",
    "codePostal": "74910",
    "ville": "74269",
    "departement": "74",
    "codeApe": "23.61Z",
    "libelleApe": "",
    "trancheEffectifs": "12",
    "dateCreation": "1980-10-03",
    "lat": 45.938332992,
    "lng": 5.836473956
  },
  {
    "id": "42116384100016",
    "siret": "42116384100016",
    "siren": "421163841",
    "nom": "COMPTOIR DE LA PREFABRICATION (CDLP)",
    "adresse": "CHEMIN DES ILES 38530 BARRAUX",
    "codePostal": "38530",
    "ville": "38027",
    "departement": "38",
    "codeApe": "23.61Z",
    "libelleApe": "",
    "trancheEffectifs": "12",
    "dateCreation": "1998-12-07",
    "lat": 45.428572345,
    "lng": 6.0002680449
  },
  {
    "id": "87918264000018",
    "siret": "87918264000018",
    "siren": "879182640",
    "nom": "SNPPN",
    "adresse": "10 ROUTE DE BANGES 74540 ALLEVES",
    "codePostal": "74540",
    "ville": "74004",
    "departement": "74",
    "codeApe": "23.61Z",
    "libelleApe": "",
    "trancheEffectifs": "11",
    "dateCreation": "2019-11-21",
    "lat": 45.758396007,
    "lng": 6.06652619
  },
  {
    "id": "88002024300023",
    "siret": "88002024300023",
    "siren": "880020243",
    "nom": "PREFATECH",
    "adresse": "LES BELUZES 42720 POUILLY-SOUS-CHARLIEU",
    "codePostal": "42720",
    "ville": "42177",
    "departement": "42",
    "codeApe": "23.61Z",
    "libelleApe": "",
    "trancheEffectifs": "11",
    "dateCreation": "2019-12-23",
    "lat": 46.144711269,
    "lng": 4.1201085269
  },
  {
    "id": "77625623200013",
    "siret": "77625623200013",
    "siren": "776256232",
    "nom": "DELTA PREFABRICATION",
    "adresse": "ZONE DU LAC CHEMIN DES ARTISANS 07000 PRIVAS",
    "codePostal": "07000",
    "ville": "07186",
    "departement": "07",
    "codeApe": "23.61Z",
    "libelleApe": "",
    "trancheEffectifs": "21",
    "dateCreation": "1981-10-01",
    "lat": 44.722415832,
    "lng": 4.602962796
  },
  {
    "id": "43025272600012",
    "siret": "43025272600012",
    "siren": "430252726",
    "nom": "CHAZEY BONS PREFA",
    "adresse": "681 ROUTE DE BOURG 01300 CHAZEY-BONS",
    "codePostal": "01300",
    "ville": "01098",
    "departement": "01",
    "codeApe": "23.61Z",
    "libelleApe": "",
    "trancheEffectifs": "12",
    "dateCreation": "2000-03-24",
    "lat": 45.80825435,
    "lng": 5.6803064018
  },
  {
    "id": "42266655200027",
    "siret": "42266655200027",
    "siren": "422666552",
    "nom": "ALBON PREFA",
    "adresse": "ROUTE DE VERMENAS 26140 ALBON",
    "codePostal": "26140",
    "ville": "26002",
    "departement": "26",
    "codeApe": "23.61Z",
    "libelleApe": "",
    "trancheEffectifs": "12",
    "dateCreation": "1999-10-01",
    "lat": 45.2599004226358,
    "lng": 4.83164453036155
  },
  {
    "id": "41347117800033",
    "siret": "41347117800033",
    "siren": "413471178",
    "nom": "CEMEXA",
    "adresse": "2130 AVENUE DES EOLIENNES 26290 DONZERE",
    "codePostal": "26290",
    "ville": "26116",
    "departement": "26",
    "codeApe": "23.61Z",
    "libelleApe": "",
    "trancheEffectifs": "12",
    "dateCreation": "1997-09-01",
    "lat": 44.4492768127004,
    "lng": 4.74819032155704
  },
  {
    "id": "48899266000016",
    "siret": "48899266000016",
    "siren": "488992660",
    "nom": "GROUPEMENT SAVOYARD DE PREFABRICATION",
    "adresse": "ZA LA GOUANNA LD LA GOUANNA 73800 CRUET",
    "codePostal": "73800",
    "ville": "73096",
    "departement": "73",
    "codeApe": "23.61Z",
    "libelleApe": "",
    "trancheEffectifs": "12",
    "dateCreation": "2006-04-01",
    "lat": 45.5169205599167,
    "lng": 6.09055595324654
  },
  {
    "id": "49908256800035",
    "siret": "49908256800035",
    "siren": "499082568",
    "nom": "SOCIETE DE VALORISATION DE MATERIAUX DES BARONNIES (SVMB) (S.V.M.B.)",
    "adresse": "175 ROUTE DU TUNNEL 26170 LA PENNE-SUR-L'OUVEZE",
    "codePostal": "26170",
    "ville": "26229",
    "departement": "26",
    "codeApe": "23.61Z",
    "libelleApe": "",
    "trancheEffectifs": "11",
    "dateCreation": "2007-06-04",
    "lat": 44.2450872148467,
    "lng": 5.23084876541253
  },
  {
    "id": "32052740100014",
    "siret": "32052740100014",
    "siren": "320527401",
    "nom": "L'ID BAT PRODUCTION (IDBAT)",
    "adresse": "1140 ROUTE DU BARRAGE 26190 SAINT-NAZAIRE-EN-ROYANS",
    "codePostal": "26190",
    "ville": "26320",
    "departement": "26",
    "codeApe": "23.61Z",
    "libelleApe": "",
    "trancheEffectifs": "11",
    "dateCreation": "1980-11-01",
    "lat": 45.072870985,
    "lng": 5.2280124357
  },
  {
    "id": "30263675800013",
    "siret": "30263675800013",
    "siren": "302636758",
    "nom": "BELLO-PACOBAT",
    "adresse": "ANNECY LE VIEUX 12 CHE DU GENIE MILITAIRE 74000 ANNECY",
    "codePostal": "74000",
    "ville": "74010",
    "departement": "74",
    "codeApe": "23.61Z",
    "libelleApe": "",
    "trancheEffectifs": "12",
    "dateCreation": "1900-01-01",
    "lat": 45.924035208,
    "lng": 6.1220375831
  },
  {
    "id": "89100945800029",
    "siret": "89100945800029",
    "siren": "891009458",
    "nom": "SITINAO (STINAO)",
    "adresse": "ROUTE D'AUREC LD LA FRANCE 43210 BAS-EN-BASSET",
    "codePostal": "43210",
    "ville": "43020",
    "departement": "43",
    "codeApe": "23.61Z",
    "libelleApe": "",
    "trancheEffectifs": "12",
    "dateCreation": "2020-11-13",
    "lat": 45.313340903,
    "lng": 4.1162453728
  },
  {
    "id": "95850898800036",
    "siret": "95850898800036",
    "siren": "958508988",
    "nom": "SOCAREL SA",
    "adresse": "ZI LD LA BOURNAILLE RTE NATIONALE 518 38540 HEYRIEUX",
    "codePostal": "38540",
    "ville": "38189",
    "departement": "38",
    "codeApe": "23.61Z",
    "libelleApe": "",
    "trancheEffectifs": "12",
    "dateCreation": "1958-01-01",
    "lat": 45.635982999,
    "lng": 5.0473416334
  },
  {
    "id": "79230306700021",
    "siret": "79230306700021",
    "siren": "792303067",
    "nom": "ATELIER MERILLON (LA MANUFACTURE DES BETONS) (LMB)",
    "adresse": "323 CHEMIN DE MEURAT 74540 CUSY",
    "codePostal": "74540",
    "ville": "74097",
    "departement": "74",
    "codeApe": "23.61Z",
    "libelleApe": "",
    "trancheEffectifs": "11",
    "dateCreation": "2013-03-23",
    "lat": 45.77237435,
    "lng": 6.0269651599
  },
  {
    "id": "53849325500011",
    "siret": "53849325500011",
    "siren": "538493255",
    "nom": "FABEMI QUALITE",
    "adresse": "LE PONT DOUBLE 26290 DONZERE",
    "codePostal": "26290",
    "ville": "26116",
    "departement": "26",
    "codeApe": "23.61Z",
    "libelleApe": "",
    "trancheEffectifs": "11",
    "dateCreation": "2011-12-02",
    "lat": 44.4133555888694,
    "lng": 4.72167894231765
  },
  {
    "id": "34987684700105",
    "siret": "34987684700105",
    "siren": "349876847",
    "nom": "MEHAT CLOTURES 72",
    "adresse": "20 BOULEVARD DE LAVAL 35500 VITRE",
    "codePostal": "35500",
    "ville": "35360",
    "departement": "35",
    "codeApe": "23.61Z",
    "libelleApe": "",
    "trancheEffectifs": "12",
    "dateCreation": "1989-01-01",
    "lat": 48.1236432998304,
    "lng": -1.20018022048434
  },
  {
    "id": "57202403200102",
    "siret": "57202403200102",
    "siren": "572024032",
    "nom": "SATEBA FRANCE (SATEBA)",
    "adresse": "TOUR CB 21 16 PLACE DE L'IRIS 92400 COURBEVOIE",
    "codePostal": "92400",
    "ville": "92026",
    "departement": "92",
    "codeApe": "23.61Z",
    "libelleApe": "",
    "trancheEffectifs": "22",
    "dateCreation": "1957-01-01",
    "lat": 48.8890586600447,
    "lng": 2.24965834595507
  },
  {
    "id": "31154795400017",
    "siret": "31154795400017",
    "siren": "311547954",
    "nom": "BETON-MATERIAUX ET CONSTRUCTIONS (BEMACO)",
    "adresse": "RUE FRANCOIS URANO 08000 WARCQ",
    "codePostal": "08000",
    "ville": "08497",
    "departement": "08",
    "codeApe": "23.61Z",
    "libelleApe": "",
    "trancheEffectifs": "32",
    "dateCreation": "1900-01-01",
    "lat": 49.7671725348144,
    "lng": 4.65600895364012
  },
  {
    "id": "58209071800088",
    "siret": "58209071800088",
    "siren": "582090718",
    "nom": "GROUPE SOPREL (SOPREL)",
    "adresse": "32 RUE DE CAMBRAI 75019 PARIS",
    "codePostal": "75019",
    "ville": "75119",
    "departement": "75",
    "codeApe": "23.61Z",
    "libelleApe": "",
    "trancheEffectifs": "21",
    "dateCreation": "1973-01-01",
    "lat": 48.895710182,
    "lng": 2.3822180059
  },
  {
    "id": "30759418400011",
    "siret": "30759418400011",
    "siren": "307594184",
    "nom": "SEPA",
    "adresse": "CARRIERES LEONHART ROUTE DE STRASBOURG 67600 SELESTAT",
    "codePostal": "67600",
    "ville": "67462",
    "departement": "67",
    "codeApe": "23.61Z",
    "libelleApe": "",
    "trancheEffectifs": "21",
    "dateCreation": "1976-01-01",
    "lat": 48.283155135,
    "lng": 7.4743318235
  },
  {
    "id": "67288081200017",
    "siret": "67288081200017",
    "siren": "672880812",
    "nom": "BETON DE LA HAUTE SEINE (BHS)",
    "adresse": "ROUTE DE RUMILLY 10260 VAUDES",
    "codePostal": "10260",
    "ville": "10399",
    "departement": "10",
    "codeApe": "23.61Z",
    "libelleApe": "",
    "trancheEffectifs": "11",
    "dateCreation": "1967-01-01",
    "lat": 48.172003632,
    "lng": 4.1960606398
  },
  {
    "id": "67698053500022",
    "siret": "67698053500022",
    "siren": "676980535",
    "nom": "HEINRICH BOCK ET CIE",
    "adresse": "CHEMIN MONSAU ZI ROUTE DE WASSELONNE 67790 STEINBOURG",
    "codePostal": "67790",
    "ville": "67478",
    "departement": "67",
    "codeApe": "23.61Z",
    "libelleApe": "",
    "trancheEffectifs": "21",
    "dateCreation": "1969-01-01",
    "lat": 48.757855632,
    "lng": 7.4204199203
  },
  {
    "id": "31219530800035",
    "siret": "31219530800035",
    "siren": "312195308",
    "nom": "ETABLISSEMENTS BIHR",
    "adresse": "14 RUE DE LA PRAIRIE 88190 GOLBEY",
    "codePostal": "88190",
    "ville": "88209",
    "departement": "88",
    "codeApe": "23.61Z",
    "libelleApe": "",
    "trancheEffectifs": "11",
    "dateCreation": "1978-01-01",
    "lat": 48.2005377374505,
    "lng": 6.44148852324029
  },
  {
    "id": "51388288600015",
    "siret": "51388288600015",
    "siren": "513882886",
    "nom": "FEHR TECHNOLOGIES REGION RHENANE",
    "adresse": "ZONE D ACTIVITE EMILE MATHIS RUE DE FROESCHWILLER 67110 REICHSHOFFEN",
    "codePostal": "67110",
    "ville": "67388",
    "departement": "67",
    "codeApe": "23.61Z",
    "libelleApe": "",
    "trancheEffectifs": "22",
    "dateCreation": "2009-07-21",
    "lat": 48.935315792,
    "lng": 7.6797316243
  },
  {
    "id": "34202847900018",
    "siret": "34202847900018",
    "siren": "342028479",
    "nom": "EPCO",
    "adresse": "RN 7 625 RUE CINSAULT 84100 ORANGE",
    "codePostal": "84100",
    "ville": "84087",
    "departement": "84",
    "codeApe": "23.61Z",
    "libelleApe": "",
    "trancheEffectifs": "22",
    "dateCreation": "1987-08-01",
    "lat": 44.115235006,
    "lng": 4.8453676995
  },
  {
    "id": "81528645500010",
    "siret": "81528645500010",
    "siren": "815286455",
    "nom": "IDSB PRODUCTION NEUILLY (IDSB PRODUCTION)",
    "adresse": "4 RUE DE HOERDT 67550 ECKWERSHEIM",
    "codePostal": "67550",
    "ville": "67119",
    "departement": "67",
    "codeApe": "23.61Z",
    "libelleApe": "",
    "trancheEffectifs": "12",
    "dateCreation": "2015-12-03",
    "lat": 48.683785375,
    "lng": 7.6977079518
  },
  {
    "id": "39231688100011",
    "siret": "39231688100011",
    "siren": "392316881",
    "nom": "CHAMPAGN ARDENNE PREFAB MAT INDUS BETON (CAPREMIB)",
    "adresse": "44 RTE NATIONALE 51220 CORMICY",
    "codePostal": "51220",
    "ville": "51171",
    "departement": "51",
    "codeApe": "23.61Z",
    "libelleApe": "",
    "trancheEffectifs": "22",
    "dateCreation": "1993-07-01",
    "lat": 49.3749579185781,
    "lng": 3.92166221503263
  },
  {
    "id": "44449100500013",
    "siret": "44449100500013",
    "siren": "444491005",
    "nom": "ABEPLAST",
    "adresse": "8 PLACE CHARLES DE GAULLE 95210 SAINT-GRATIEN",
    "codePostal": "95210",
    "ville": "95555",
    "departement": "95",
    "codeApe": "23.61Z",
    "libelleApe": "",
    "trancheEffectifs": "11",
    "dateCreation": "2002-12-13",
    "lat": 48.969232419,
    "lng": 2.2868298784
  },
  {
    "id": "95365274000010",
    "siret": "95365274000010",
    "siren": "953652740",
    "nom": "FIMAT TP",
    "adresse": "ROUTE DE MARANGE 57280 MAIZIERES-LES-METZ",
    "codePostal": "57280",
    "ville": "57433",
    "departement": "57",
    "codeApe": "23.61Z",
    "libelleApe": "",
    "trancheEffectifs": "11",
    "dateCreation": "2023-05-23",
    "lat": 49.209555513,
    "lng": 6.142440194
  },
  {
    "id": "43989033600019",
    "siret": "43989033600019",
    "siren": "439890336",
    "nom": "FEHR TECHNOLOGIES - ILE DE FRANCE",
    "adresse": "ZONE D'ACTIVITE EMILE MATHIS RUE DE FROESCHWILLER 67110 REICHSHOFFEN",
    "codePostal": "67110",
    "ville": "67388",
    "departement": "67",
    "codeApe": "23.61Z",
    "libelleApe": "",
    "trancheEffectifs": "21",
    "dateCreation": "2001-10-01",
    "lat": 48.935475512,
    "lng": 7.6756439585
  },
  {
    "id": "30397096600055",
    "siret": "30397096600055",
    "siren": "303970966",
    "nom": "ADG BETON",
    "adresse": "ZI PARC DE LA MOTTE AU BOIS RUE ANDRE BIGOTTE 62440 HARNES",
    "codePostal": "62440",
    "ville": "62413",
    "departement": "62",
    "codeApe": "23.61Z",
    "libelleApe": "",
    "trancheEffectifs": "12",
    "dateCreation": "1974-01-01",
    "lat": 50.467743439,
    "lng": 2.9092864666
  },
  {
    "id": "88969800700016",
    "siret": "88969800700016",
    "siren": "889698007",
    "nom": "MUANCE",
    "adresse": "TECHNOPOLE DE L'ARBOIS DOM DU PT ARBOI AV LOUIS PHILIBERT 13080 AIX-EN-PROVENCE",
    "codePostal": "13080",
    "ville": "13001",
    "departement": "13",
    "codeApe": "23.61Z",
    "libelleApe": "",
    "trancheEffectifs": "11",
    "dateCreation": "2020-09-18",
    "lat": 43.491186048,
    "lng": 5.3321791609
  },
  {
    "id": "53848950100014",
    "siret": "53848950100014",
    "siren": "538489501",
    "nom": "F.B.A",
    "adresse": "ZI DE BRAUX RUE DE LA PIERRE SAINT MARTIN 08120 BOGNY-SUR-MEUSE",
    "codePostal": "08120",
    "ville": "08081",
    "departement": "08",
    "codeApe": "23.61Z",
    "libelleApe": "",
    "trancheEffectifs": "12",
    "dateCreation": "2011-12-01",
    "lat": 49.845211513,
    "lng": 4.7745497119
  },
  {
    "id": "68552059500016",
    "siret": "68552059500016",
    "siren": "685520595",
    "nom": "ELECTRO BETON",
    "adresse": "3 RTE DE CAMBRAI 59159 MARCOING",
    "codePostal": "59159",
    "ville": "59377",
    "departement": "59",
    "codeApe": "23.61Z",
    "libelleApe": "",
    "trancheEffectifs": "11",
    "dateCreation": "1955-01-01",
    "lat": 50.126908498,
    "lng": 3.1889675998
  },
  {
    "id": "81456235100043",
    "siret": "81456235100043",
    "siren": "814562351",
    "nom": "ACCIOME 08 (ACCIOME 08)",
    "adresse": "ZONE D ACTIVITES  BELLEVUE 08500 LES MAZURES",
    "codePostal": "08500",
    "ville": "08284",
    "departement": "08",
    "codeApe": "23.61Z",
    "libelleApe": "",
    "trancheEffectifs": "12",
    "dateCreation": "2015-11-01",
    "lat": 49.89439639,
    "lng": 4.6234869827
  },
  {
    "id": "32512286900036",
    "siret": "32512286900036",
    "siren": "325122869",
    "nom": "STAVEMARNE SA",
    "adresse": "24 RUE DES FRERES GARNIER 52000 CHAUMONT",
    "codePostal": "52000",
    "ville": "52121",
    "departement": "52",
    "codeApe": "23.61Z",
    "libelleApe": "",
    "trancheEffectifs": "11",
    "dateCreation": "1982-07-01",
    "lat": 48.115355169,
    "lng": 5.1037857409
  },
  {
    "id": "41189219300029",
    "siret": "41189219300029",
    "siren": "411892193",
    "nom": "EG PREFA",
    "adresse": "7 RUE DE LA PLAINE 68500 GUEBWILLER",
    "codePostal": "68500",
    "ville": "68112",
    "departement": "68",
    "codeApe": "23.61Z",
    "libelleApe": "",
    "trancheEffectifs": "11",
    "dateCreation": "1997-04-08",
    "lat": 47.898170834,
    "lng": 7.2298764996
  },
  {
    "id": "38376923900021",
    "siret": "38376923900021",
    "siren": "383769239",
    "nom": "SOFICO",
    "adresse": "3, 4, 5 3 RUE DE L'ORMICEE 55000 BAR-LE-DUC",
    "codePostal": "55000",
    "ville": "55029",
    "departement": "55",
    "codeApe": "23.61Z",
    "libelleApe": "",
    "trancheEffectifs": "11",
    "dateCreation": "1991-05-15",
    "lat": 48.78162323,
    "lng": 5.1549686659
  },
  {
    "id": "40389069200029",
    "siret": "40389069200029",
    "siren": "403890692",
    "nom": "PREFATEC SARL",
    "adresse": "ZONE D'ACTIVITES CHARNOIS RUE FRANCIS DE PRESSENCE 08170 FUMAY",
    "codePostal": "08170",
    "ville": "08185",
    "departement": "08",
    "codeApe": "23.61Z",
    "libelleApe": "",
    "trancheEffectifs": "11",
    "dateCreation": "1996-02-01",
    "lat": 49.986546904,
    "lng": 4.6864927681
  },
  {
    "id": "30725018300018",
    "siret": "30725018300018",
    "siren": "307250183",
    "nom": "BETON CONTROLE DE LA MORTAGNE",
    "adresse": "ZONE INDUSTRIELLE ROUTE D’AUTREY 88700 RAMBERVILLERS",
    "codePostal": "88700",
    "ville": "88367",
    "departement": "88",
    "codeApe": "23.61Z",
    "libelleApe": "",
    "trancheEffectifs": "21",
    "dateCreation": "1972-01-01",
    "lat": 48.33978231,
    "lng": 6.6552483045
  },
  {
    "id": "44501871600016",
    "siret": "44501871600016",
    "siren": "445018716",
    "nom": "SARBETON",
    "adresse": "ROUTE DE HERBITZHEIM 67260 KESKASTEL",
    "codePostal": "67260",
    "ville": "67234",
    "departement": "67",
    "codeApe": "23.61Z",
    "libelleApe": "",
    "trancheEffectifs": "12",
    "dateCreation": "2002-06-01",
    "lat": 48.987248626,
    "lng": 7.0462174621
  },
  {
    "id": "34312508400016",
    "siret": "34312508400016",
    "siren": "343125084",
    "nom": "KRONIMUS",
    "adresse": "ROUTE DE MARANGE 57280 MAIZIERES-LES-METZ",
    "codePostal": "57280",
    "ville": "57433",
    "departement": "57",
    "codeApe": "23.61Z",
    "libelleApe": "",
    "trancheEffectifs": "21",
    "dateCreation": "1987-12-07",
    "lat": 49.208959555,
    "lng": 6.1521672828
  },
  {
    "id": "33036714500019",
    "siret": "33036714500019",
    "siren": "330367145",
    "nom": "BETON CONTROLE DU SEEBODEN",
    "adresse": "1 RUE DE KINGERSHEIM 68120 RICHWILLER",
    "codePostal": "68120",
    "ville": "68270",
    "departement": "68",
    "codeApe": "23.61Z",
    "libelleApe": "",
    "trancheEffectifs": "21",
    "dateCreation": "1984-07-01",
    "lat": 47.787678802,
    "lng": 7.2885622368
  },
  {
    "id": "33474921500037",
    "siret": "33474921500037",
    "siren": "334749215",
    "nom": "ENTREPRISE VAL BETON MOULE DE L'EST (EVBME)",
    "adresse": "LD LES SABLIERES 57175 GANDRANGE",
    "codePostal": "57175",
    "ville": "57242",
    "departement": "57",
    "codeApe": "23.61Z",
    "libelleApe": "",
    "trancheEffectifs": "11",
    "dateCreation": "1986-02-03",
    "lat": 49.281025025,
    "lng": 6.1282436965
  },
  {
    "id": "41481504303184",
    "siret": "41481504303184",
    "siren": "414815043",
    "nom": "LAFARGE BETONS",
    "adresse": "14-16 14 BOULEVARD GARIBALDI 92130 ISSY-LES-MOULINEAUX",
    "codePostal": "92130",
    "ville": "92040",
    "departement": "92",
    "codeApe": "23.63Z",
    "libelleApe": "",
    "trancheEffectifs": "42",
    "dateCreation": "1997-12-15",
    "lat": 48.8225713800445,
    "lng": 2.26162828787134
  },
  {
    "id": "64201616603673",
    "siret": "64201616603673",
    "siren": "642016166",
    "nom": "HEIDELBERG MATERIALS FRANCE BETONS (HM FRANCE BETONS)",
    "adresse": "TOUR ALTO 4 PLACE DES SAISONS 92400 COURBEVOIE",
    "codePostal": "92400",
    "ville": "92026",
    "departement": "92",
    "codeApe": "23.63Z",
    "libelleApe": "",
    "trancheEffectifs": "41",
    "dateCreation": "1900-01-01",
    "lat": 48.8893520671003,
    "lng": 2.25127448746517
  },
  {
    "id": "30991846400160",
    "siret": "30991846400160",
    "siren": "309918464",
    "nom": "BETON VICAT",
    "adresse": "LES TROIS VALLONS 4 RUE ARISTIDE BERGES 38080 L'ISLE-D'ABEAU",
    "codePostal": "38080",
    "ville": "38193",
    "departement": "38",
    "codeApe": "23.63Z",
    "libelleApe": "",
    "trancheEffectifs": "32",
    "dateCreation": "1977-01-01",
    "lat": 45.6060032961466,
    "lng": 5.21769488683487
  },
  {
    "id": "94555054901723",
    "siret": "94555054901723",
    "siren": "945550549",
    "nom": "EQIOM BETONS",
    "adresse": "COLISEE GARDENS 10 AVENUE DE L'ARCHE 92400 COURBEVOIE",
    "codePostal": "92400",
    "ville": "92026",
    "departement": "92",
    "codeApe": "23.63Z",
    "libelleApe": "",
    "trancheEffectifs": "32",
    "dateCreation": "1955-01-01",
    "lat": 48.8954790538768,
    "lng": 2.23883737139983
  },
  {
    "id": "39916157900574",
    "siret": "39916157900574",
    "siren": "399161579",
    "nom": "CEMEX BETONS SUD EST",
    "adresse": "13 RUE DU CAPRICORNE 94150 RUNGIS",
    "codePostal": "94150",
    "ville": "94065",
    "departement": "94",
    "codeApe": "23.63Z",
    "libelleApe": "",
    "trancheEffectifs": "22",
    "dateCreation": "1994-12-02",
    "lat": 48.7435982378666,
    "lng": 2.35891633420147
  },
  {
    "id": "35006422600243",
    "siret": "35006422600243",
    "siren": "350064226",
    "nom": "BETON DES MONTS DU LYONNAIS (BML)",
    "adresse": "25 CHEMIN DE LA RENAUDIERE 69850 SAINT-MARTIN-EN-HAUT",
    "codePostal": "69850",
    "ville": "69227",
    "departement": "69",
    "codeApe": "23.63Z",
    "libelleApe": "",
    "trancheEffectifs": "22",
    "dateCreation": "1989-03-10",
    "lat": 45.654550507,
    "lng": 4.5393910201
  },
  {
    "id": "40015153600754",
    "siret": "40015153600754",
    "siren": "400151536",
    "nom": "CEMEX BETONS RHONE-ALPES",
    "adresse": "13 RUE DU CAPRICORNE 94150 RUNGIS",
    "codePostal": "94150",
    "ville": "94065",
    "departement": "94",
    "codeApe": "23.63Z",
    "libelleApe": "",
    "trancheEffectifs": "21",
    "dateCreation": "1995-03-01",
    "lat": 48.7435982378666,
    "lng": 2.35891633420147
  },
  {
    "id": "79440955700046",
    "siret": "79440955700046",
    "siren": "794409557",
    "nom": "BETON SOLUTIONS MOBILES",
    "adresse": "D'ACTIVITES DE PARIS-EST 9 ALLEE LECH WALESA 77185 LOGNES",
    "codePostal": "77185",
    "ville": "77258",
    "departement": "77",
    "codeApe": "23.63Z",
    "libelleApe": "",
    "trancheEffectifs": "22",
    "dateCreation": "2013-07-12",
    "lat": 48.826977336,
    "lng": 2.6243207455
  },
  {
    "id": "44036026100018",
    "siret": "44036026100018",
    "siren": "440360261",
    "nom": "ETS FRANCOIS INDUSTRIE",
    "adresse": "LA PRIMAUBE 109 AVENUE DE RODEZ 12450 LUC-LA-PRIMAUBE",
    "codePostal": "12450",
    "ville": "12133",
    "departement": "12",
    "codeApe": "23.63Z",
    "libelleApe": "",
    "trancheEffectifs": "21",
    "dateCreation": "2001-12-28",
    "lat": 44.302226519,
    "lng": 2.5555956962
  },
  {
    "id": "79307315600101",
    "siret": "79307315600101",
    "siren": "793073156",
    "nom": "RESEAU CHAPE",
    "adresse": "4 IMPASSE DES GRANGES 38290 LA VERPILLIERE",
    "codePostal": "38290",
    "ville": "38537",
    "departement": "38",
    "codeApe": "23.63Z",
    "libelleApe": "",
    "trancheEffectifs": "12",
    "dateCreation": "2013-05-06",
    "lat": 45.6442821377529,
    "lng": 5.13369386508871
  },
  {
    "id": "34039831200017",
    "siret": "34039831200017",
    "siren": "340398312",
    "nom": "DELMONICO DOREL BETON (DDF)",
    "adresse": "4 RD 132 LA RAVICOLE 26140 ANDANCETTE",
    "codePostal": "26140",
    "ville": "26009",
    "departement": "26",
    "codeApe": "23.63Z",
    "libelleApe": "",
    "trancheEffectifs": "11",
    "dateCreation": "1987-01-02",
    "lat": 45.24089146,
    "lng": 4.8181664473
  },
  {
    "id": "88393460600020",
    "siret": "88393460600020",
    "siren": "883934606",
    "nom": "3B",
    "adresse": "35 AVENUE ARISTIDE BERGES 38420 DOMENE",
    "codePostal": "38420",
    "ville": "38150",
    "departement": "38",
    "codeApe": "23.63Z",
    "libelleApe": "",
    "trancheEffectifs": "12",
    "dateCreation": "2020-06-05",
    "lat": 45.198047238,
    "lng": 5.8192603566
  },
  {
    "id": "75213661400019",
    "siret": "75213661400019",
    "siren": "752136614",
    "nom": "SOCIETE D EXPLOITATION DES BETONS MARTEL-SEBM",
    "adresse": "D AFRIQUE DU NORD 26 RUE ANCIENS COMBATTANTS AFRIQUE NORD 69720 SAINT-LAURENT-DE-MURE",
    "codePostal": "69720",
    "ville": "69288",
    "departement": "69",
    "codeApe": "23.63Z",
    "libelleApe": "",
    "trancheEffectifs": "12",
    "dateCreation": "2012-05-23",
    "lat": 45.686929968,
    "lng": 5.0536209872
  },
  {
    "id": "43588004200047",
    "siret": "43588004200047",
    "siren": "435880042",
    "nom": "ENTREPRISE GENTIAL ET FILS",
    "adresse": "285 CHEMIN DE ROUSSET 26320 SAINT-MARCEL-LES-VALENCE",
    "codePostal": "26320",
    "ville": "26313",
    "departement": "26",
    "codeApe": "23.63Z",
    "libelleApe": "",
    "trancheEffectifs": "12",
    "dateCreation": "1958-01-01",
    "lat": 44.961975512,
    "lng": 4.9450418463
  },
  {
    "id": "43313922700055",
    "siret": "43313922700055",
    "siren": "433139227",
    "nom": "ALP'BETON",
    "adresse": "28 RUE DES TATTES 74380 NANGY",
    "codePostal": "74380",
    "ville": "74197",
    "departement": "74",
    "codeApe": "23.63Z",
    "libelleApe": "",
    "trancheEffectifs": "12",
    "dateCreation": "2000-09-01",
    "lat": 46.1539876321211,
    "lng": 6.29677379922419
  },
  {
    "id": "33136472900011",
    "siret": "33136472900011",
    "siren": "331364729",
    "nom": "ESCOLLE BETON",
    "adresse": "17 RUE DU LAC 38120 SAINT-EGREVE",
    "codePostal": "38120",
    "ville": "38382",
    "departement": "38",
    "codeApe": "23.63Z",
    "libelleApe": "",
    "trancheEffectifs": "12",
    "dateCreation": "1985-01-01",
    "lat": 45.235175286,
    "lng": 5.6653051842
  },
  {
    "id": "41473140600016",
    "siret": "41473140600016",
    "siren": "414731406",
    "nom": "PLATTARD BETON",
    "adresse": "414 AVENUE DE LA PLAGE 69400 VILLEFRANCHE-SUR-SAONE",
    "codePostal": "69400",
    "ville": "69264",
    "departement": "69",
    "codeApe": "23.63Z",
    "libelleApe": "",
    "trancheEffectifs": "12",
    "dateCreation": "1997-12-09",
    "lat": 45.979648457,
    "lng": 4.7461625661
  },
  {
    "id": "34805895900068",
    "siret": "34805895900068",
    "siren": "348058959",
    "nom": "GACHET BETON (GACHET BETON)",
    "adresse": "121 ALLEE DES ACACIAS 38260 CHAMPIER",
    "codePostal": "38260",
    "ville": "38069",
    "departement": "38",
    "codeApe": "23.63Z",
    "libelleApe": "",
    "trancheEffectifs": "12",
    "dateCreation": "1988-10-01",
    "lat": 45.4555262615615,
    "lng": 5.29259984179193
  },
  {
    "id": "51193171900013",
    "siret": "51193171900013",
    "siren": "511931719",
    "nom": "CARRIERES DODET (CARRIERES DODET)",
    "adresse": "465 ROUTE DU PRAT 07330 THUEYTS",
    "codePostal": "07330",
    "ville": "07322",
    "departement": "07",
    "codeApe": "23.63Z",
    "libelleApe": "",
    "trancheEffectifs": "12",
    "dateCreation": "2009-04-16",
    "lat": 44.684577144974,
    "lng": 4.23485885348117
  },
  {
    "id": "48502714800017",
    "siret": "48502714800017",
    "siren": "485027148",
    "nom": "BETON SERVICE LOIRE",
    "adresse": "1477 RUE DE LA TORANCHE 42210 SAINT-LAURENT-LA-CONCHE",
    "codePostal": "42210",
    "ville": "42251",
    "departement": "42",
    "codeApe": "23.63Z",
    "libelleApe": "",
    "trancheEffectifs": "12",
    "dateCreation": "2005-11-01",
    "lat": 45.683797083,
    "lng": 4.2278277177
  },
  {
    "id": "39935490100049",
    "siret": "39935490100049",
    "siren": "399354901",
    "nom": "SOCIETE DES BASALTES DU CENTRE",
    "adresse": "ZI DU BREZET 5 RUE BERNARD PALISSY 63100 CLERMONT-FERRAND",
    "codePostal": "63100",
    "ville": "63113",
    "departement": "63",
    "codeApe": "23.63Z",
    "libelleApe": "",
    "trancheEffectifs": "11",
    "dateCreation": "1994-01-01",
    "lat": 45.78930948,
    "lng": 3.1364644949
  },
  {
    "id": "38106098700017",
    "siret": "38106098700017",
    "siren": "381060987",
    "nom": "BETON +",
    "adresse": "CD 102 RTE DE LA FOUILLOUS PRES FURAN 42170 SAINT-JUST-SAINT-RAMBERT",
    "codePostal": "42170",
    "ville": "42279",
    "departement": "42",
    "codeApe": "23.63Z",
    "libelleApe": "",
    "trancheEffectifs": "11",
    "dateCreation": "1991-02-25",
    "lat": 45.509886255,
    "lng": 4.2757911509
  },
  {
    "id": "33355698300026",
    "siret": "33355698300026",
    "siren": "333556983",
    "nom": "LEMAN BETON",
    "adresse": "20 BOULEVARD DU ROYAL 74500 EVIAN-LES-BAINS",
    "codePostal": "74500",
    "ville": "74119",
    "departement": "74",
    "codeApe": "23.63Z",
    "libelleApe": "",
    "trancheEffectifs": "11",
    "dateCreation": "1985-09-01",
    "lat": 46.396115565,
    "lng": 6.5847510695
  },
  {
    "id": "33358398700032",
    "siret": "33358398700032",
    "siren": "333583987",
    "nom": "ADIMAT (ADIMAT)",
    "adresse": "RN 198 LD NIELUCCIO 20240 GHISONACCIA",
    "codePostal": "20240",
    "ville": "2B123",
    "departement": "2B",
    "codeApe": "23.63Z",
    "libelleApe": "",
    "trancheEffectifs": "11",
    "dateCreation": "1985-08-01",
    "lat": 42.023510593,
    "lng": 9.4138766725
  },
  {
    "id": "79708025600028",
    "siret": "79708025600028",
    "siren": "797080256",
    "nom": "SA CHABLAIS-BETON",
    "adresse": "ZONE INDUSTRIELLE DE VONGY 11 RUE DES ARCOUASSES 74200 THONON-LES-BAINS",
    "codePostal": "74200",
    "ville": "74281",
    "departement": "74",
    "codeApe": "23.63Z",
    "libelleApe": "",
    "trancheEffectifs": "11",
    "dateCreation": "1970-01-01",
    "lat": 46.393993561,
    "lng": 6.5083934378
  },
  {
    "id": "77907317000010",
    "siret": "77907317000010",
    "siren": "779073170",
    "nom": "STE CANTALIENNE MATER CONSTR (SOCAMAC)",
    "adresse": "83 AVENUE DE CONTHE 15000 AURILLAC",
    "codePostal": "15000",
    "ville": "15014",
    "departement": "15",
    "codeApe": "23.63Z",
    "libelleApe": "",
    "trancheEffectifs": "12",
    "dateCreation": "1900-01-01",
    "lat": 44.912571697,
    "lng": 2.4255861554
  },
  {
    "id": "32910869000036",
    "siret": "32910869000036",
    "siren": "329108690",
    "nom": "MEYNET BETON SAS",
    "adresse": "LES TROIS VALLONS 4 RUE ARISTIDE BERGES 38080 L'ISLE-D'ABEAU",
    "codePostal": "38080",
    "ville": "38193",
    "departement": "38",
    "codeApe": "23.63Z",
    "libelleApe": "",
    "trancheEffectifs": "11",
    "dateCreation": "1984-01-01",
    "lat": 45.6060032961466,
    "lng": 5.21769488683487
  },
  {
    "id": "53197573800018",
    "siret": "53197573800018",
    "siren": "531975738",
    "nom": "BETON DU SALEVE",
    "adresse": "NOYER ZI LA PRAUX 74200 ALLINGES",
    "codePostal": "74200",
    "ville": "74005",
    "departement": "74",
    "codeApe": "23.63Z",
    "libelleApe": "",
    "trancheEffectifs": "11",
    "dateCreation": "2011-04-16",
    "lat": 46.331005667,
    "lng": 6.482877344
  },
  {
    "id": "80335381200016",
    "siret": "80335381200016",
    "siren": "803353812",
    "nom": "BETON DES FINS (BETON DES FINS)",
    "adresse": "707 RUE DENIS PAPIN 73290 LA MOTTE-SERVOLEX",
    "codePostal": "73290",
    "ville": "73179",
    "departement": "73",
    "codeApe": "23.63Z",
    "libelleApe": "",
    "trancheEffectifs": "11",
    "dateCreation": "2014-07-04",
    "lat": 45.6004329964126,
    "lng": 5.88281299824061
  },
  {
    "id": "37811818600014",
    "siret": "37811818600014",
    "siren": "378118186",
    "nom": "BETON SA",
    "adresse": "ZONE DES GRAVIERS 63119 CHATEAUGAY",
    "codePostal": "63119",
    "ville": "63099",
    "departement": "63",
    "codeApe": "23.63Z",
    "libelleApe": "",
    "trancheEffectifs": "11",
    "dateCreation": "1990-05-10",
    "lat": 45.84795627,
    "lng": 3.1114405605
  },
  {
    "id": "60622020000012",
    "siret": "60622020000012",
    "siren": "606220200",
    "nom": "ETABLISSEMENTS R. MORET",
    "adresse": "LD LE FAYET BP 24 76 RUE DES PRES MOULIN 74190 PASSY",
    "codePostal": "74190",
    "ville": "74208",
    "departement": "74",
    "codeApe": "23.63Z",
    "libelleApe": "",
    "trancheEffectifs": "12",
    "dateCreation": "1962-01-01",
    "lat": 45.913052879,
    "lng": 6.7103429982
  },
  {
    "id": "44863843700013",
    "siret": "44863843700013",
    "siren": "448638437",
    "nom": "ARDECHE BETON PRET EMPLOI (ABPE)",
    "adresse": "25 A CHEMIN DE SAINT-PIERRE 07200 AUBENAS",
    "codePostal": "07200",
    "ville": "07019",
    "departement": "07",
    "codeApe": "23.63Z",
    "libelleApe": "",
    "trancheEffectifs": "11",
    "dateCreation": "2003-05-15",
    "lat": 44.602238849,
    "lng": 4.3992137711
  },
  {
    "id": "31363136800013",
    "siret": "31363136800013",
    "siren": "313631368",
    "nom": "THONES BETON",
    "adresse": "Z.A LES ILES 307 ROUTE DES ANCIENS JARDINS 74230 LA BALME-DE-THUY",
    "codePostal": "74230",
    "ville": "74027",
    "departement": "74",
    "codeApe": "23.63Z",
    "libelleApe": "",
    "trancheEffectifs": "11",
    "dateCreation": "1978-01-01",
    "lat": 45.895364407,
    "lng": 6.2648179047
  },
  {
    "id": "88378680800013",
    "siret": "88378680800013",
    "siren": "883786808",
    "nom": "CTE POMPAGES (CTE POMPAGES)",
    "adresse": "LIEUDIT LES GRANGES ROUTE DE LA VERDASSE 73100 MONTCEL",
    "codePostal": "73100",
    "ville": "73164",
    "departement": "73",
    "codeApe": "23.63Z",
    "libelleApe": "",
    "trancheEffectifs": "11",
    "dateCreation": "2020-05-29",
    "lat": 45.725674605,
    "lng": 5.9687335965
  },
  {
    "id": "52757124400013",
    "siret": "52757124400013",
    "siren": "527571244",
    "nom": "CENTRALE DES GRANDS VRIS",
    "adresse": "ZONE ESPACE LEADERS 2 ALLEE DE CHAMPS GALERE 74540 ALBY-SUR-CHERAN",
    "codePostal": "74540",
    "ville": "74002",
    "departement": "74",
    "codeApe": "23.63Z",
    "libelleApe": "",
    "trancheEffectifs": "11",
    "dateCreation": "2010-09-23",
    "lat": 45.818793132,
    "lng": 5.9953234625
  },
  {
    "id": "41028820300764",
    "siret": "41028820300764",
    "siren": "410288203",
    "nom": "CEMEX BETONS NORD OUEST",
    "adresse": "13 RUE DU CAPRICORNE 94150 RUNGIS",
    "codePostal": "94150",
    "ville": "94065",
    "departement": "94",
    "codeApe": "23.63Z",
    "libelleApe": "",
    "trancheEffectifs": "31",
    "dateCreation": "1996-12-20",
    "lat": 48.7435982378666,
    "lng": 2.35891633420147
  },
  {
    "id": "80957403100021",
    "siret": "80957403100021",
    "siren": "809574031",
    "nom": "HOLCIM BETON GRANULAT HAUT-RHIN",
    "adresse": "49 AV LIEU DIT RITTY 68730 BLOTZHEIM",
    "codePostal": "68730",
    "ville": "68042",
    "departement": "68",
    "codeApe": "23.63Z",
    "libelleApe": "",
    "trancheEffectifs": "22",
    "dateCreation": "2015-02-03",
    "lat": 47.624594168,
    "lng": 7.511868575
  },
  {
    "id": "01655086500014",
    "siret": "01655086500014",
    "siren": "016550865",
    "nom": "DIJON BETON SOC",
    "adresse": "COURS DE GRAY 21850 SAINT-APOLLINAIRE",
    "codePostal": "21850",
    "ville": "21540",
    "departement": "21",
    "codeApe": "23.63Z",
    "libelleApe": "",
    "trancheEffectifs": "21",
    "dateCreation": "1965-01-01",
    "lat": 47.33459564,
    "lng": 5.0962511941
  },
  {
    "id": "72850123000037",
    "siret": "72850123000037",
    "siren": "728501230",
    "nom": "FEHR BETON (ANBF)",
    "adresse": "ZONE D ACTIVITE EMILE MATHIS 21 RUE DE FROESCHWILLER 67110 REICHSHOFFEN",
    "codePostal": "67110",
    "ville": "67388",
    "departement": "67",
    "codeApe": "23.63Z",
    "libelleApe": "",
    "trancheEffectifs": "12",
    "dateCreation": "1972-01-01",
    "lat": 48.938266001,
    "lng": 7.6832686386
  },
  {
    "id": "51769892400019",
    "siret": "51769892400019",
    "siren": "517698924",
    "nom": "SOCIETE DE BETON INDUSTRIEL (SBI)",
    "adresse": "ZONE INDUSTRIELLE LE TERTRE LANDRY 70200 LURE",
    "codePostal": "70200",
    "ville": "70310",
    "departement": "70",
    "codeApe": "23.63Z",
    "libelleApe": "",
    "trancheEffectifs": "21",
    "dateCreation": "2009-10-01",
    "lat": 47.693810316,
    "lng": 6.4667454345
  },
  {
    "id": "30585015800018",
    "siret": "30585015800018",
    "siren": "305850158",
    "nom": "HERONNIERE",
    "adresse": "LD LA HERONNIERE 21 RUE DES GRAVOTS 88440 NOMEXY",
    "codePostal": "88440",
    "ville": "88327",
    "departement": "88",
    "codeApe": "23.63Z",
    "libelleApe": "",
    "trancheEffectifs": "12",
    "dateCreation": "1958-01-01",
    "lat": 48.303008354,
    "lng": 6.3922886782
  },
  {
    "id": "94545105200035",
    "siret": "94545105200035",
    "siren": "945451052",
    "nom": "MICHEL SAS",
    "adresse": "150 RUE DE PFASTATT 68260 KINGERSHEIM",
    "codePostal": "68260",
    "ville": "68166",
    "departement": "68",
    "codeApe": "23.63Z",
    "libelleApe": "",
    "trancheEffectifs": "21",
    "dateCreation": "1954-01-01",
    "lat": 47.784949519,
    "lng": 7.3095095718
  },
  {
    "id": "50618018100055",
    "siret": "50618018100055",
    "siren": "506180181",
    "nom": "SOCIETE ANONYME BALLASTIERES CANTRELLE",
    "adresse": "45 AVENUE DE BELLEFONTAINE 88480 ETIVAL-CLAIREFONTAINE",
    "codePostal": "88480",
    "ville": "88165",
    "departement": "88",
    "codeApe": "23.63Z",
    "libelleApe": "",
    "trancheEffectifs": "12",
    "dateCreation": "1961-01-01",
    "lat": 48.358562995,
    "lng": 6.8792582678
  },
  {
    "id": "75367662600025",
    "siret": "75367662600025",
    "siren": "753676626",
    "nom": "BETONS FEIDT FRANCE",
    "adresse": "RUE FREDERIC MANSUY 54700 ATTON",
    "codePostal": "54700",
    "ville": "54027",
    "departement": "54",
    "codeApe": "23.63Z",
    "libelleApe": "",
    "trancheEffectifs": "12",
    "dateCreation": "2012-08-01",
    "lat": 48.892616005,
    "lng": 6.1151094164
  },
  {
    "id": "32806946300011",
    "siret": "32806946300011",
    "siren": "328069463",
    "nom": "MARNE BETON",
    "adresse": "20 VOIE CHANTERAINE 51520 RECY",
    "codePostal": "51520",
    "ville": "51453",
    "departement": "51",
    "codeApe": "23.63Z",
    "libelleApe": "",
    "trancheEffectifs": "12",
    "dateCreation": "1983-09-08",
    "lat": 48.991037984,
    "lng": 4.3194744197
  },
  {
    "id": "43132045600038",
    "siret": "43132045600038",
    "siren": "431320456",
    "nom": "BETON RONCARI (N.E.T)",
    "adresse": "LD LE BOCHET DE LA LORRAINE RD 87 02400 EPAUX-BEZU",
    "codePostal": "02400",
    "ville": "02279",
    "departement": "02",
    "codeApe": "23.63Z",
    "libelleApe": "",
    "trancheEffectifs": "11",
    "dateCreation": "2000-05-08",
    "lat": null,
    "lng": null
  },
  {
    "id": "44527301400016",
    "siret": "44527301400016",
    "siren": "445273014",
    "nom": "PFORDT BETON",
    "adresse": "12 RUE DES ROSES 67320 SIEWILLER",
    "codePostal": "67320",
    "ville": "67467",
    "departement": "67",
    "codeApe": "23.63Z",
    "libelleApe": "",
    "trancheEffectifs": "12",
    "dateCreation": "2003-02-01",
    "lat": 48.844233784,
    "lng": 7.2132231598
  },
  {
    "id": "88896991200060",
    "siret": "88896991200060",
    "siren": "888969912",
    "nom": "ORBELLO PREFABRICATION",
    "adresse": "20 BOULEVARD DE LAVAL 35500 VITRE",
    "codePostal": "35500",
    "ville": "35360",
    "departement": "35",
    "codeApe": "23.63Z",
    "libelleApe": "",
    "trancheEffectifs": "12",
    "dateCreation": "2020-09-14",
    "lat": 48.1236432998304,
    "lng": -1.20018022048434
  },
  {
    "id": "65588110000011",
    "siret": "65588110000011",
    "siren": "655881100",
    "nom": "ANGERMULLER S.A.",
    "adresse": "14 RUE DE STEINBACH 57200 SARREGUEMINES",
    "codePostal": "57200",
    "ville": "57631",
    "departement": "57",
    "codeApe": "23.63Z",
    "libelleApe": "",
    "trancheEffectifs": "12",
    "dateCreation": "1958-01-01",
    "lat": 49.10076224,
    "lng": 7.077153237
  },
  {
    "id": "38154972400015",
    "siret": "38154972400015",
    "siren": "381549724",
    "nom": "C.A.B. CENTRE ALSACE BETON",
    "adresse": "ROUTE DE RODERN 68590 SAINT-HIPPOLYTE",
    "codePostal": "68590",
    "ville": "68296",
    "departement": "68",
    "codeApe": "23.63Z",
    "libelleApe": "",
    "trancheEffectifs": "12",
    "dateCreation": "1991-03-06",
    "lat": 48.218266011,
    "lng": 7.3921856176
  },
  {
    "id": "51130894200024",
    "siret": "51130894200024",
    "siren": "511308942",
    "nom": "CONCEPTION REALISATION BETON PRET A L'EMPLOI (CR.BPE)",
    "adresse": "ZAC 46 AVENUE JOSEPH MARIE JACQUARD 10100 ROMILLY-SUR-SEINE",
    "codePostal": "10100",
    "ville": "10323",
    "departement": "10",
    "codeApe": "23.63Z",
    "libelleApe": "",
    "trancheEffectifs": "11",
    "dateCreation": "2009-03-23",
    "lat": 48.506607022,
    "lng": 3.7050628082
  },
  {
    "id": "32001530800010",
    "siret": "32001530800010",
    "siren": "320015308",
    "nom": "BETON DU RIED",
    "adresse": "RUE DE HINDISHEIM 67880 KRAUTERGERSHEIM",
    "codePostal": "67880",
    "ville": "67248",
    "departement": "67",
    "codeApe": "23.63Z",
    "libelleApe": "",
    "trancheEffectifs": "11",
    "dateCreation": "1980-10-01",
    "lat": 48.472902562,
    "lng": 7.5862697326
  },
  {
    "id": "48178430400026",
    "siret": "48178430400026",
    "siren": "481784304",
    "nom": "SILVEX BETON REIMS",
    "adresse": "LIEUDIT L'EPINETTE 51110 LAVANNES",
    "codePostal": "51110",
    "ville": "51318",
    "departement": "51",
    "codeApe": "23.63Z",
    "libelleApe": "",
    "trancheEffectifs": "12",
    "dateCreation": "2005-04-08",
    "lat": 49.317123519,
    "lng": 4.1485824798
  },
  {
    "id": "33785671000021",
    "siret": "33785671000021",
    "siren": "337856710",
    "nom": "SARL MAYOT SABLIERE DU SEP",
    "adresse": "RUE LEON CARRESSE 55700 BEAUFORT-EN-ARGONNE",
    "codePostal": "55700",
    "ville": "55037",
    "departement": "55",
    "codeApe": "23.63Z",
    "libelleApe": "",
    "trancheEffectifs": "11",
    "dateCreation": "1986-04-01",
    "lat": 49.472100998,
    "lng": 5.1124695281
  },
  {
    "id": "49760599800010",
    "siret": "49760599800010",
    "siren": "497605998",
    "nom": "BETON DE LA THUR",
    "adresse": "ZONE D'ACTIVITE RUE DES GENETS 68700 ASPACH-MICHELBACH",
    "codePostal": "68700",
    "ville": "68012",
    "departement": "68",
    "codeApe": "23.63Z",
    "libelleApe": "",
    "trancheEffectifs": "11",
    "dateCreation": "2007-04-01",
    "lat": 47.792085545,
    "lng": 7.143962804
  },
  {
    "id": "34409171500013",
    "siret": "34409171500013",
    "siren": "344091715",
    "nom": "SAGRA INDUSTRIE",
    "adresse": "RUE DE PETIT-LANDAU 68440 HABSHEIM",
    "codePostal": "68440",
    "ville": "68118",
    "departement": "68",
    "codeApe": "23.63Z",
    "libelleApe": "",
    "trancheEffectifs": "11",
    "dateCreation": "1988-01-04",
    "lat": 47.731450998,
    "lng": 7.4328382644
  },
  {
    "id": "30378912700014",
    "siret": "30378912700014",
    "siren": "303789127",
    "nom": "PRODUITS DE REVETEMENT DU BATIMENT (P.R.B.)",
    "adresse": "ZI SUD LA MOTHE ACHARD 16 RUE DE LA TOUR 85150 LES ACHARDS",
    "codePostal": "85150",
    "ville": "85152",
    "departement": "85",
    "codeApe": "23.64Z",
    "libelleApe": "",
    "trancheEffectifs": "41",
    "dateCreation": "1900-01-01",
    "lat": 46.605081542,
    "lng": -1.652924961
  },
  {
    "id": "65578055900143",
    "siret": "65578055900143",
    "siren": "655780559",
    "nom": "VICAT MATERIAUX FORMULES",
    "adresse": "LES TROIS VALLONS 4 RUE ARISTIDE BERGES 38080 L'ISLE-D'ABEAU",
    "codePostal": "38080",
    "ville": "38193",
    "departement": "38",
    "codeApe": "23.64Z",
    "libelleApe": "",
    "trancheEffectifs": "31",
    "dateCreation": "1957-01-01",
    "lat": 45.6060032961466,
    "lng": 5.21769488683487
  },
  {
    "id": "78862933500118",
    "siret": "78862933500118",
    "siren": "788629335",
    "nom": "BAUMIT SAS",
    "adresse": "ZAC DU GUE DE LAUNAY 1 IMPASSE DE LA CENTRALE 77360 VAIRES-SUR-MARNE",
    "codePostal": "77360",
    "ville": "77479",
    "departement": "77",
    "codeApe": "23.64Z",
    "libelleApe": "",
    "trancheEffectifs": "21",
    "dateCreation": "2012-08-23",
    "lat": 48.874336257,
    "lng": 2.6499791966
  },
  {
    "id": "43492748900063",
    "siret": "43492748900063",
    "siren": "434927489",
    "nom": "CANTILLANA",
    "adresse": "125 CHEMIN DE LA REPENNELAIS 44540 VALLONS-DE-L'ERDRE",
    "codePostal": "44540",
    "ville": "44180",
    "departement": "44",
    "codeApe": "23.64Z",
    "libelleApe": "",
    "trancheEffectifs": "21",
    "dateCreation": "2001-03-05",
    "lat": 47.582740623725,
    "lng": -1.09669610646098
  },
  {
    "id": "79146711100047",
    "siret": "79146711100047",
    "siren": "791467111",
    "nom": "RCR PRODUCTION FRANCE",
    "adresse": "LYON BUSINESS CENTER 59 RUE DE L'ABONDANCE 69003 LYON",
    "codePostal": "69003",
    "ville": "69383",
    "departement": "69",
    "codeApe": "23.64Z",
    "libelleApe": "",
    "trancheEffectifs": "12",
    "dateCreation": "2012-12-26",
    "lat": 45.754120383,
    "lng": 4.8559396747
  },
  {
    "id": "32459005800099",
    "siret": "32459005800099",
    "siren": "324590058",
    "nom": "MATIERES MARIUS AURENTI (OCEAN)",
    "adresse": "PARC D'ACTIVITE DU 45EME PARALLELE 3 RUE BRILLAT-SAVARIN 26300 CHATEAUNEUF-SUR-ISERE",
    "codePostal": "26300",
    "ville": "26084",
    "departement": "26",
    "codeApe": "23.64Z",
    "libelleApe": "",
    "trancheEffectifs": "11",
    "dateCreation": "1982-05-12",
    "lat": 44.997392341,
    "lng": 4.9805739681
  },
  {
    "id": "40413653300019",
    "siret": "40413653300019",
    "siren": "404136533",
    "nom": "STAFF DECOR",
    "adresse": "ZA DE L'HERMITIERE RUE DE L'HERMITIERE 35230 ORGERES",
    "codePostal": "35230",
    "ville": "35208",
    "departement": "35",
    "codeApe": "23.69Z",
    "libelleApe": "",
    "trancheEffectifs": "21",
    "dateCreation": "1996-02-22",
    "lat": 47.961052746,
    "lng": -1.68525008
  },
  {
    "id": "84232537500017",
    "siret": "84232537500017",
    "siren": "842325375",
    "nom": "AD LUCEM CREATION",
    "adresse": "ZA PORTE DU VERCORS RUE DU GRAND VEYMONT 26300 CHATEAUNEUF-SUR-ISERE",
    "codePostal": "26300",
    "ville": "26084",
    "departement": "26",
    "codeApe": "23.69Z",
    "libelleApe": "",
    "trancheEffectifs": "11",
    "dateCreation": "2018-09-12",
    "lat": 45.022275243,
    "lng": 5.0308697323
  },
  {
    "id": "79036584500011",
    "siret": "79036584500011",
    "siren": "790365845",
    "nom": "MOBILIER URBAIN BEAUJOLAIS",
    "adresse": "967 CHEMIN DES GRANDS MOULINS 69400 GLEIZE",
    "codePostal": "69400",
    "ville": "69092",
    "departement": "69",
    "codeApe": "23.69Z",
    "libelleApe": "",
    "trancheEffectifs": "11",
    "dateCreation": "2013-01-04",
    "lat": 45.984493794,
    "lng": 4.6986804484
  },
  {
    "id": "45017305900038",
    "siret": "45017305900038",
    "siren": "450173059",
    "nom": "SOCIETE INDUSTRIELLE BETONS ARDENNAIS",
    "adresse": "23 AVENUE DE VERSAILLES 75016 PARIS",
    "codePostal": "75016",
    "ville": "75116",
    "departement": "75",
    "codeApe": "23.69Z",
    "libelleApe": "",
    "trancheEffectifs": "12",
    "dateCreation": "2003-10-01",
    "lat": 48.849892645,
    "lng": 2.2764971867
  },
  {
    "id": "43373599000015",
    "siret": "43373599000015",
    "siren": "433735990",
    "nom": "OESTERLE MOBILIER URBAIN",
    "adresse": "48 RUE DU GENERAL DE GAULLE 68460 LUTTERBACH",
    "codePostal": "68460",
    "ville": "68195",
    "departement": "68",
    "codeApe": "23.69Z",
    "libelleApe": "",
    "trancheEffectifs": "11",
    "dateCreation": "2000-12-01",
    "lat": 47.75847908,
    "lng": 7.2839403968
  },
  {
    "id": "40793539400020",
    "siret": "40793539400020",
    "siren": "407935394",
    "nom": "SOCIETE DE PREFABRICATION CHAMPAGNE ARDENNE (SOPRECA)",
    "adresse": "30 BOULEVARD DU VAL DE VESLE 51100 REIMS",
    "codePostal": "51100",
    "ville": "51454",
    "departement": "51",
    "codeApe": "23.69Z",
    "libelleApe": "",
    "trancheEffectifs": "11",
    "dateCreation": "1996-06-20",
    "lat": 49.226414705,
    "lng": 4.0841429036
  },
  {
    "id": "94635077400034",
    "siret": "94635077400034",
    "siren": "946350774",
    "nom": "PILLON FRERES",
    "adresse": "100 RUE DE MUNCHHOUSE 68890 REGUISHEIM",
    "codePostal": "68890",
    "ville": "68266",
    "departement": "68",
    "codeApe": "23.69Z",
    "libelleApe": "",
    "trancheEffectifs": "11",
    "dateCreation": "1963-01-01",
    "lat": 47.883756246,
    "lng": 7.398193895
  },
  {
    "id": "39950891000037",
    "siret": "39950891000037",
    "siren": "399508910",
    "nom": "PARTNER ENGINEERING",
    "adresse": "11 RUE DU COMMERCE 51350 CORMONTREUIL",
    "codePostal": "51350",
    "ville": "51172",
    "departement": "51",
    "codeApe": "23.69Z",
    "libelleApe": "",
    "trancheEffectifs": "11",
    "dateCreation": "1995-02-01",
    "lat": 49.215736059,
    "lng": 4.0692826081
  },
  {
    "id": "56209442500427",
    "siret": "56209442500427",
    "siren": "562094425",
    "nom": "ARCELORMITTAL FRANCE",
    "adresse": "IMMEUBLE LE CEZANNE 6 RUE ANDRE CAMPRA 93210 SAINT-DENIS",
    "codePostal": "93210",
    "ville": "93066",
    "departement": "93",
    "codeApe": "24.10Z",
    "libelleApe": "",
    "trancheEffectifs": "52",
    "dateCreation": "1942-01-14",
    "lat": 48.919372051,
    "lng": 2.3556561081
  },
  {
    "id": "42117403800123",
    "siret": "42117403800123",
    "siren": "421174038",
    "nom": "ARCELORMITTAL MEDITERRANEE",
    "adresse": "IMMEUBLE LE CEZANNE 6 RUE ANDRE CAMPRA 93210 SAINT-DENIS",
    "codePostal": "93210",
    "ville": "93066",
    "departement": "93",
    "codeApe": "24.10Z",
    "libelleApe": "",
    "trancheEffectifs": "51",
    "dateCreation": "1998-11-06",
    "lat": 48.919372051,
    "lng": 2.3556561081
  },
  {
    "id": "56204259800440",
    "siret": "56204259800440",
    "siren": "562042598",
    "nom": "VOSSLOH SWITCH SYSTEMS FRANCE",
    "adresse": "23 RUE FRANCOIS JACOB 92500 RUEIL-MALMAISON",
    "codePostal": "92500",
    "ville": "92063",
    "departement": "92",
    "codeApe": "24.10Z",
    "libelleApe": "",
    "trancheEffectifs": "41",
    "dateCreation": "1956-01-01",
    "lat": 48.8908993236879,
    "lng": 2.17601455558933
  },
  {
    "id": "41043615800027",
    "siret": "41043615800027",
    "siren": "410436158",
    "nom": "UGITECH",
    "adresse": "AVENUE PAUL GIROD 73400 UGINE",
    "codePostal": "73400",
    "ville": "73303",
    "departement": "73",
    "codeApe": "24.10Z",
    "libelleApe": "",
    "trancheEffectifs": "42",
    "dateCreation": "1996-12-09",
    "lat": 45.746128388,
    "lng": 6.425166457
  },
  {
    "id": "33131087000158",
    "siret": "33131087000158",
    "siren": "331310870",
    "nom": "INDUSTEEL FRANCE",
    "adresse": "IMMEUBLE LE CEZANNE 6 RUE ANDRE CAMPRA 93210 SAINT-DENIS",
    "codePostal": "93210",
    "ville": "93066",
    "departement": "93",
    "codeApe": "24.10Z",
    "libelleApe": "",
    "trancheEffectifs": "42",
    "dateCreation": "1984-12-01",
    "lat": 48.919372051,
    "lng": 2.3556561081
  },
  {
    "id": "56362061600018",
    "siret": "56362061600018",
    "siren": "563620616",
    "nom": "ACIERIES DE BONPERTUIS",
    "adresse": "BONPERTUIS 38140 APPRIEU",
    "codePostal": "38140",
    "ville": "38013",
    "departement": "38",
    "codeApe": "24.10Z",
    "libelleApe": "",
    "trancheEffectifs": "21",
    "dateCreation": "1956-01-01",
    "lat": 45.396496401,
    "lng": 5.5288103299
  },
  {
    "id": "80863590800011",
    "siret": "80863590800011",
    "siren": "808635908",
    "nom": "ACIERS FOURVIERE",
    "adresse": "44 QUAI CHARLES DE GAULLE 69006 LYON",
    "codePostal": "69006",
    "ville": "69386",
    "departement": "69",
    "codeApe": "24.10Z",
    "libelleApe": "",
    "trancheEffectifs": "11",
    "dateCreation": "2014-12-22",
    "lat": 45.784720881,
    "lng": 4.8546026091
  },
  {
    "id": "91433601100020",
    "siret": "91433601100020",
    "siren": "914336011",
    "nom": "GRAVITHY",
    "adresse": "LES DOCKS - ATRIUM 10.6 10 PLACE DE LA JOLIETTE 13002 MARSEILLE",
    "codePostal": "13002",
    "ville": "13202",
    "departement": "13",
    "codeApe": "24.10Z",
    "libelleApe": "",
    "trancheEffectifs": "11",
    "dateCreation": "2022-06-03",
    "lat": 43.305481427,
    "lng": 5.3659735977
  },
  {
    "id": "06150086400022",
    "siret": "06150086400022",
    "siren": "061500864",
    "nom": "WINOA",
    "adresse": "528 AVENUE DE SAVOIE 38570 LE CHEYLAS",
    "codePostal": "38570",
    "ville": "38100",
    "departement": "38",
    "codeApe": "24.10Z",
    "libelleApe": "",
    "trancheEffectifs": "31",
    "dateCreation": "1961-01-01",
    "lat": 45.3838086003498,
    "lng": 5.99915770075453
  },
  {
    "id": "32056432100034",
    "siret": "32056432100034",
    "siren": "320564321",
    "nom": "ERASTEEL CHAMPAGNOLE SA",
    "adresse": "23 RUE CLEMENCEAU 39300 CHAMPAGNOLE",
    "codePostal": "39300",
    "ville": "39097",
    "departement": "39",
    "codeApe": "24.10Z",
    "libelleApe": "",
    "trancheEffectifs": "21",
    "dateCreation": "1981-01-01",
    "lat": 46.744632162,
    "lng": 5.9149229874
  },
  {
    "id": "83489490900029",
    "siret": "83489490900029",
    "siren": "834894909",
    "nom": "ASCOMETAL LES DUNES S.A.S",
    "adresse": "USINE DES DUNES 59495 LEFFRINCKOUCKE",
    "codePostal": "59495",
    "ville": "59340",
    "departement": "59",
    "codeApe": "24.10Z",
    "libelleApe": "",
    "trancheEffectifs": "22",
    "dateCreation": "2018-01-18",
    "lat": 51.055028824,
    "lng": 2.4579253285
  },
  {
    "id": "83489501300029",
    "siret": "83489501300029",
    "siren": "834895013",
    "nom": "ASCOMETAL HAGONDANGE SAS",
    "adresse": "USINE D'HAGONDANGE AVENUE DE FRANCE 57300 HAGONDANGE",
    "codePostal": "57300",
    "ville": "57283",
    "departement": "57",
    "codeApe": "24.10Z",
    "libelleApe": "",
    "trancheEffectifs": "32",
    "dateCreation": "2018-01-18",
    "lat": 49.243267606,
    "lng": 6.1584926463
  },
  {
    "id": "83489559100024",
    "siret": "83489559100024",
    "siren": "834895591",
    "nom": "ASCOMETAL FOS-SUR-MER S.A.S",
    "adresse": "USINE DE FOS SUR MER ZI DU VENTILLON 13270 FOS-SUR-MER",
    "codePostal": "13270",
    "ville": "13039",
    "departement": "13",
    "codeApe": "24.10Z",
    "libelleApe": "",
    "trancheEffectifs": "32",
    "dateCreation": "2018-01-18",
    "lat": 43.442716056,
    "lng": 4.8473680687
  },
  {
    "id": "31213869600017",
    "siret": "31213869600017",
    "siren": "312138696",
    "nom": "ACIERIES ET LAMINOIRS DE RIVES (ALR)",
    "adresse": "52 A ROUTE DE COLOMBE 38140 RIVES",
    "codePostal": "38140",
    "ville": "38337",
    "departement": "38",
    "codeApe": "24.10Z",
    "libelleApe": "",
    "trancheEffectifs": "22",
    "dateCreation": "1978-01-01",
    "lat": 45.359947611,
    "lng": 5.4902439458
  },
  {
    "id": "64675012500049",
    "siret": "64675012500049",
    "siren": "646750125",
    "nom": "SOCIETE TRAVAUX FACON ST AMOUR",
    "adresse": "L'ETANG 787 ROUTE DE SERVIGNAT 01560 SAINT-TRIVIER-DE-COURTES",
    "codePostal": "01560",
    "ville": "01388",
    "departement": "01",
    "codeApe": "24.10Z",
    "libelleApe": "",
    "trancheEffectifs": "12",
    "dateCreation": "1967-01-01",
    "lat": 46.4504537154524,
    "lng": 5.07715607833126
  },
  {
    "id": "39157535400017",
    "siret": "39157535400017",
    "siren": "391575354",
    "nom": "SAARSTAHL RAIL (LIBERTY RAIL)",
    "adresse": "164 RUE MARECHAL FOCH 57700 HAYANGE",
    "codePostal": "57700",
    "ville": "57306",
    "departement": "57",
    "codeApe": "24.10Z",
    "libelleApe": "",
    "trancheEffectifs": "32",
    "dateCreation": "1993-07-01",
    "lat": 49.333532752,
    "lng": 6.0512430679
  },
  {
    "id": "38951706100021",
    "siret": "38951706100021",
    "siren": "389517061",
    "nom": "SAM SOCIETE DES ACIERS D'ARMATURE POUR LE BETON (SAM)",
    "adresse": "222 RUE VICTOR DE LESPINATS 54230 NEUVES-MAISONS",
    "codePostal": "54230",
    "ville": "54397",
    "departement": "54",
    "codeApe": "24.10Z",
    "libelleApe": "",
    "trancheEffectifs": "32",
    "dateCreation": "1993-01-01",
    "lat": 48.610238096,
    "lng": 6.1092989037
  },
  {
    "id": "47874765200012",
    "siret": "47874765200012",
    "siren": "478747652",
    "nom": "ARCANE ENTREPRISE",
    "adresse": "ZI DE METZANGE RUE DES TERRES ROUGES 57100 THIONVILLE",
    "codePostal": "57100",
    "ville": "57672",
    "departement": "57",
    "codeApe": "24.10Z",
    "libelleApe": "",
    "trancheEffectifs": "11",
    "dateCreation": "2004-08-13",
    "lat": 49.359943484,
    "lng": 6.1020258328
  },
  {
    "id": "41043591100061",
    "siret": "41043591100061",
    "siren": "410435911",
    "nom": "ARCELORMITTAL GANDRANGE",
    "adresse": "SITE IND DE GANDRANGE 57360 AMNEVILLE",
    "codePostal": "57360",
    "ville": "57019",
    "departement": "57",
    "codeApe": "24.10Z",
    "libelleApe": "",
    "trancheEffectifs": "31",
    "dateCreation": "1996-12-23",
    "lat": 49.261758854,
    "lng": 6.1301192231
  },
  {
    "id": "40058712700012",
    "siret": "40058712700012",
    "siren": "400587127",
    "nom": "PALFROID SA",
    "adresse": "9 A ROUTE DE MESSEMPRE 08110 PURE",
    "codePostal": "08110",
    "ville": "08349",
    "departement": "08",
    "codeApe": "24.10Z",
    "libelleApe": "",
    "trancheEffectifs": "11",
    "dateCreation": "1995-03-27",
    "lat": 49.6759602281215,
    "lng": 5.1641001613702
  },
  {
    "id": "47817889000024",
    "siret": "47817889000024",
    "siren": "478178890",
    "nom": "TUBEST SAS",
    "adresse": "ZONE D'INTERET DEPARTEMENTAL L'OMOIS ZONE DEPARTEMENTALE DE L'OMOIS 02400 EPAUX-BEZU",
    "codePostal": "02400",
    "ville": "02279",
    "departement": "02",
    "codeApe": "24.20Z",
    "libelleApe": "",
    "trancheEffectifs": "21",
    "dateCreation": "2004-08-03",
    "lat": 49.079217034,
    "lng": 3.3886822999
  },
  {
    "id": "65204499100345",
    "siret": "65204499100345",
    "siren": "652044991",
    "nom": "VALLOUREC TUBES FRANCE",
    "adresse": "12 RUE DE LA VERRERIE 92190 MEUDON",
    "codePostal": "92190",
    "ville": "92048",
    "departement": "92",
    "codeApe": "24.20Z",
    "libelleApe": "",
    "trancheEffectifs": "41",
    "dateCreation": "1965-01-01",
    "lat": 48.8206374564573,
    "lng": 2.23374348228446
  },
  {
    "id": "33989693800059",
    "siret": "33989693800059",
    "siren": "339896938",
    "nom": "ISOPLUS ENERGIE",
    "adresse": "ZAC CHAPOTIN 238 RUE DES FRERES VOISIN 69970 CHAPONNAY",
    "codePostal": "69970",
    "ville": "69270",
    "departement": "69",
    "codeApe": "24.20Z",
    "libelleApe": "",
    "trancheEffectifs": "21",
    "dateCreation": "1986-12-02",
    "lat": 45.647162847,
    "lng": 4.9179708839
  },
  {
    "id": "90851228800022",
    "siret": "90851228800022",
    "siren": "908512288",
    "nom": "FRAMATOME ARC",
    "adresse": "6 RUE MAISON GEORGES BEAUMONT HAGUE 50440 LA HAGUE",
    "codePostal": "50440",
    "ville": "50041",
    "departement": "50",
    "codeApe": "24.20Z",
    "libelleApe": "",
    "trancheEffectifs": "32",
    "dateCreation": "2021-12-21",
    "lat": 49.6594284433614,
    "lng": -1.82705665656435
  },
  {
    "id": "34473380300029",
    "siret": "34473380300029",
    "siren": "344733803",
    "nom": "RIVA ACIER",
    "adresse": "Z I  LIMAY PORCHEVILLE 78440 PORCHEVILLE",
    "codePostal": "78440",
    "ville": "78501",
    "departement": "78",
    "codeApe": "24.20Z",
    "libelleApe": "",
    "trancheEffectifs": "21",
    "dateCreation": "1988-05-02",
    "lat": 48.983779548,
    "lng": 1.7594611047
  },
  {
    "id": "89935051600014",
    "siret": "89935051600014",
    "siren": "899350516",
    "nom": "TECALEMIT TUBES",
    "adresse": "ZONE D'ACTIVITE PARC DES BOSS 9 ROUTE DU DOME 69630 CHAPONOST",
    "codePostal": "69630",
    "ville": "69043",
    "departement": "69",
    "codeApe": "24.20Z",
    "libelleApe": "",
    "trancheEffectifs": "21",
    "dateCreation": "2021-05-10",
    "lat": 45.6951539921,
    "lng": 4.76471402136
  },
  {
    "id": "32697976200043",
    "siret": "32697976200043",
    "siren": "326979762",
    "nom": "PROFORM",
    "adresse": "10 CHEMIN DE LA PLAINE 69390 VOURLES",
    "codePostal": "69390",
    "ville": "69268",
    "departement": "69",
    "codeApe": "24.20Z",
    "libelleApe": "",
    "trancheEffectifs": "22",
    "dateCreation": "1983-03-01",
    "lat": 45.6575397088231,
    "lng": 4.76379287812021
  },
  {
    "id": "42145405900047",
    "siret": "42145405900047",
    "siren": "421454059",
    "nom": "MINITUBES",
    "adresse": "ZAC TECHNISUD 21 RUE JEAN VAUJANY 38000 GRENOBLE",
    "codePostal": "38000",
    "ville": "38185",
    "departement": "38",
    "codeApe": "24.20Z",
    "libelleApe": "",
    "trancheEffectifs": "41",
    "dateCreation": "1998-12-21",
    "lat": 45.160845273,
    "lng": 5.7047373928
  },
  {
    "id": "81289840100029",
    "siret": "81289840100029",
    "siren": "812898401",
    "nom": "ETIC TUBES ET PROFILES (COPPER SOLUTIONS)",
    "adresse": "PARC INDUSTRIEL DE LA PLAINE DE L AIN 100 ALLEE DE MONT BRON 01150 SAINT-VULBAS",
    "codePostal": "01150",
    "ville": "01390",
    "departement": "01",
    "codeApe": "24.20Z",
    "libelleApe": "",
    "trancheEffectifs": "12",
    "dateCreation": "2015-07-30",
    "lat": 45.82545228,
    "lng": 5.2826496943
  },
  {
    "id": "48572001500018",
    "siret": "48572001500018",
    "siren": "485720015",
    "nom": "LA MEUSIENNE (SMCM)",
    "adresse": "1 RUE PRELE 55170 ANCERVILLE",
    "codePostal": "55170",
    "ville": "55010",
    "departement": "55",
    "codeApe": "24.20Z",
    "libelleApe": "",
    "trancheEffectifs": "21",
    "dateCreation": "1957-01-01",
    "lat": 48.6179666157433,
    "lng": 5.01145006774085
  },
  {
    "id": "34074074500088",
    "siret": "34074074500088",
    "siren": "340740745",
    "nom": "VIACON FRANCE (SPIREL, VIACON)",
    "adresse": "765 AVENUE DES FRERES LUMIERE 69250 NEUVILLE-SUR-SAONE",
    "codePostal": "69250",
    "ville": "69143",
    "departement": "69",
    "codeApe": "24.20Z",
    "libelleApe": "",
    "trancheEffectifs": "12",
    "dateCreation": "1987-01-02",
    "lat": 45.883953848,
    "lng": 4.8199868476
  },
  {
    "id": "50925276300016",
    "siret": "50925276300016",
    "siren": "509252763",
    "nom": "TOLERIE INDUSTRIELLE LYONNAISE",
    "adresse": "ZI LES PRUNUS 14 ALLEE BERNARD DE PALISSY 69780 MIONS",
    "codePostal": "69780",
    "ville": "69283",
    "departement": "69",
    "codeApe": "24.20Z",
    "libelleApe": "",
    "trancheEffectifs": "11",
    "dateCreation": "2008-11-15",
    "lat": 45.669081608,
    "lng": 4.9698583502
  },
  {
    "id": "37957137500052",
    "siret": "37957137500052",
    "siren": "379571375",
    "nom": "LE GUELLEC",
    "adresse": "ZI DE KERNEVEZ 12 RUE NOBEL 29000 QUIMPER",
    "codePostal": "29000",
    "ville": "29232",
    "departement": "29",
    "codeApe": "24.20Z",
    "libelleApe": "",
    "trancheEffectifs": "21",
    "dateCreation": "1990-09-21",
    "lat": 48.003527931,
    "lng": -4.145804252
  },
  {
    "id": "53909592700031",
    "siret": "53909592700031",
    "siren": "539095927",
    "nom": "IDEO INDUSTRIES",
    "adresse": "103 IMPASSE LAVOISIER 38530 PONTCHARRA",
    "codePostal": "38530",
    "ville": "38314",
    "departement": "38",
    "codeApe": "24.20Z",
    "libelleApe": "",
    "trancheEffectifs": "11",
    "dateCreation": "2012-01-06",
    "lat": 45.4233190382036,
    "lng": 6.00622803938296
  },
  {
    "id": "81775293400023",
    "siret": "81775293400023",
    "siren": "817752934",
    "nom": "LYON CINTRAGE SEIGNOBOS",
    "adresse": "4 RUE ANTONIN DUMAS 69200 VENISSIEUX",
    "codePostal": "69200",
    "ville": "69259",
    "departement": "69",
    "codeApe": "24.20Z",
    "libelleApe": "",
    "trancheEffectifs": "12",
    "dateCreation": "2016-01-11",
    "lat": 45.6901765501101,
    "lng": 4.89931766630276
  },
  {
    "id": "83325509400017",
    "siret": "83325509400017",
    "siren": "833255094",
    "nom": "ARCELORMITTAL TUBULAR PRODUCTS LEXY",
    "adresse": "IMMEUBLE LE CEZANNE 6 RUE ANDRE CAMPRA 93210 SAINT-DENIS",
    "codePostal": "93210",
    "ville": "93066",
    "departement": "93",
    "codeApe": "24.20Z",
    "libelleApe": "",
    "trancheEffectifs": "22",
    "dateCreation": "2017-10-18",
    "lat": 48.919372051,
    "lng": 2.3556561081
  },
  {
    "id": "42642016200023",
    "siret": "42642016200023",
    "siren": "426420162",
    "nom": "MANNESMANN PRECISION TUBES FRANCE",
    "adresse": "Z.I SUD LA SAUNIERE 89600 CHEU",
    "codePostal": "89600",
    "ville": "89101",
    "departement": "89",
    "codeApe": "24.20Z",
    "libelleApe": "",
    "trancheEffectifs": "32",
    "dateCreation": "1964-01-01",
    "lat": 47.985644474,
    "lng": 3.7444478321
  },
  {
    "id": "38374724300020",
    "siret": "38374724300020",
    "siren": "383747243",
    "nom": "JONCOUX",
    "adresse": "79 RUE DE BERTHAUCOURT 08000 CHARLEVILLE-MEZIERES",
    "codePostal": "08000",
    "ville": "08105",
    "departement": "08",
    "codeApe": "24.20Z",
    "libelleApe": "",
    "trancheEffectifs": "31",
    "dateCreation": "1992-01-01",
    "lat": 49.761117716,
    "lng": 4.7428460963
  },
  {
    "id": "41161091800038",
    "siret": "41161091800038",
    "siren": "411610918",
    "nom": "FORGES DE BELLES ONDES (FBO)",
    "adresse": "Z.I DE BOISSE 9 RUE MONTGOLFIER 87200 SAINT-JUNIEN",
    "codePostal": "87200",
    "ville": "87154",
    "departement": "87",
    "codeApe": "24.20Z",
    "libelleApe": "",
    "trancheEffectifs": "22",
    "dateCreation": "1997-04-01",
    "lat": 45.904245781,
    "lng": 0.9168130575
  },
  {
    "id": "85215183600016",
    "siret": "85215183600016",
    "siren": "852151836",
    "nom": "MCTI",
    "adresse": "2 RUE JEAN BUGATTI 67120 DUPPIGHEIM",
    "codePostal": "67120",
    "ville": "67108",
    "departement": "67",
    "codeApe": "24.20Z",
    "libelleApe": "",
    "trancheEffectifs": "11",
    "dateCreation": "2019-06-17",
    "lat": 48.541010397,
    "lng": 7.5865643272
  },
  {
    "id": "78468949900050",
    "siret": "78468949900050",
    "siren": "784689499",
    "nom": "ARCELORMITTAL TUBULAR PRODUCTS HAUTMONT",
    "adresse": "12 RUE DES USINES 59330 HAUTMONT",
    "codePostal": "59330",
    "ville": "59291",
    "departement": "59",
    "codeApe": "24.20Z",
    "libelleApe": "",
    "trancheEffectifs": "22",
    "dateCreation": "1965-01-01",
    "lat": 50.245781866,
    "lng": 3.8978314232
  },
  {
    "id": "79080946100029",
    "siret": "79080946100029",
    "siren": "790809461",
    "nom": "AFT INDUSTRY (AFT INDUSTRY)",
    "adresse": "PARC ACT. PAYS THANN ASPACH - MICHELBA 600 RUE AUGUSTE SCHEURER-KESTNER 68700 ASPACH-MICHELBACH",
    "codePostal": "68700",
    "ville": "68012",
    "departement": "68",
    "codeApe": "24.20Z",
    "libelleApe": "",
    "trancheEffectifs": "12",
    "dateCreation": "2013-01-14",
    "lat": 47.7924950905253,
    "lng": 7.12761185020265
  },
  {
    "id": "40368036600016",
    "siret": "40368036600016",
    "siren": "403680366",
    "nom": "LORTUB",
    "adresse": "ENCEINTE SACILOR RUE DE FRANCHEPRE 54240 JŒUF",
    "codePostal": "54240",
    "ville": "54280",
    "departement": "54",
    "codeApe": "24.20Z",
    "libelleApe": "",
    "trancheEffectifs": "12",
    "dateCreation": "1996-01-17",
    "lat": 49.234103392,
    "lng": 6.0207320163
  },
  {
    "id": "84156886800027",
    "siret": "84156886800027",
    "siren": "841568868",
    "nom": "ACIDER",
    "adresse": "21 RUE MALGRAS 52100 SAINT-DIZIER",
    "codePostal": "52100",
    "ville": "52448",
    "departement": "52",
    "codeApe": "24.20Z",
    "libelleApe": "",
    "trancheEffectifs": "11",
    "dateCreation": "2018-07-01",
    "lat": 48.652688282,
    "lng": 4.9251547944
  },
  {
    "id": "38381000900019",
    "siret": "38381000900019",
    "siren": "383810009",
    "nom": "TENNECO ETAIN (GTT)",
    "adresse": "ZI LA VIGNETTE RUE DES FONTANGUES 55400 ETAIN",
    "codePostal": "55400",
    "ville": "55181",
    "departement": "55",
    "codeApe": "24.20Z",
    "libelleApe": "",
    "trancheEffectifs": "12",
    "dateCreation": "1992-02-01",
    "lat": 49.207935132,
    "lng": 5.6460849786
  },
  {
    "id": "82172358200010",
    "siret": "82172358200010",
    "siren": "821723582",
    "nom": "FABB21",
    "adresse": "RUE FRANCIS DE PRESSENCE 08170 FUMAY",
    "codePostal": "08170",
    "ville": "08185",
    "departement": "08",
    "codeApe": "24.20Z",
    "libelleApe": "",
    "trancheEffectifs": "12",
    "dateCreation": "2016-07-22",
    "lat": 49.987413051,
    "lng": 4.683595906
  },
  {
    "id": "08578053400013",
    "siret": "08578053400013",
    "siren": "085780534",
    "nom": "BAUDIN CHATEAUNEUF",
    "adresse": "60 RUE DE LA BROSSE 45110 CHATEAUNEUF-SUR-LOIRE",
    "codePostal": "45110",
    "ville": "45082",
    "departement": "45",
    "codeApe": "25.11Z",
    "libelleApe": "",
    "trancheEffectifs": "41",
    "dateCreation": "1957-01-01",
    "lat": 47.868840831,
    "lng": 2.2311658537
  },
  {
    "id": "38929267300156",
    "siret": "38929267300156",
    "siren": "389292673",
    "nom": "PROVOST DISTRIBUTION",
    "adresse": "PARC DU FERRAIN RUE GUSTAVE EIFFEL 59960 NEUVILLE-EN-FERRAIN",
    "codePostal": "59960",
    "ville": "59426",
    "departement": "59",
    "codeApe": "25.11Z",
    "libelleApe": "",
    "trancheEffectifs": "32",
    "dateCreation": "1992-11-17",
    "lat": 50.740821634,
    "lng": 3.1509941373
  },
  {
    "id": "09728023400010",
    "siret": "09728023400010",
    "siren": "097280234",
    "nom": "ETABLISSEMENTS CANCE (CANCE CONSTRUCTIONS METALLIQUES)",
    "adresse": "RTE DE LA MONTJOIE 64800 NAY",
    "codePostal": "64800",
    "ville": "64417",
    "departement": "64",
    "codeApe": "25.11Z",
    "libelleApe": "",
    "trancheEffectifs": "32",
    "dateCreation": "1972-01-01",
    "lat": 43.176346482,
    "lng": -0.252115042
  },
  {
    "id": "34273235100016",
    "siret": "34273235100016",
    "siren": "342732351",
    "nom": "CASTEL ET FROMAGET",
    "adresse": "35 AVENUE CLEMENT FAYAT 32500 FLEURANCE",
    "codePostal": "32500",
    "ville": "32132",
    "departement": "32",
    "codeApe": "25.11Z",
    "libelleApe": "",
    "trancheEffectifs": "32",
    "dateCreation": "1987-04-01",
    "lat": 43.853026949,
    "lng": 0.6550148627
  },
  {
    "id": "52890204200027",
    "siret": "52890204200027",
    "siren": "528902042",
    "nom": "G.H.M.",
    "adresse": "RUE ANTOINE DURENNE 52220 SOMMEVOIRE",
    "codePostal": "52220",
    "ville": "52479",
    "departement": "52",
    "codeApe": "25.11Z",
    "libelleApe": "",
    "trancheEffectifs": "32",
    "dateCreation": "2010-11-25",
    "lat": 48.417516705,
    "lng": 4.8357080113
  },
  {
    "id": "89229832400013",
    "siret": "89229832400013",
    "siren": "892298324",
    "nom": "COUGNAUD",
    "adresse": "500 RUE DU CLAIR BOCAGE 85000 MOUILLERON-LE-CAPTIF",
    "codePostal": "85000",
    "ville": "85155",
    "departement": "85",
    "codeApe": "25.11Z",
    "libelleApe": "",
    "trancheEffectifs": "42",
    "dateCreation": "2020-12-21",
    "lat": 46.726412987508,
    "lng": -1.43256703114873
  },
  {
    "id": "39790993800086",
    "siret": "39790993800086",
    "siren": "397909938",
    "nom": "ABRISUD",
    "adresse": "ZI DU PONT PEYRIN 32600 L'ISLE-JOURDAIN",
    "codePostal": "32600",
    "ville": "32160",
    "departement": "32",
    "codeApe": "25.11Z",
    "libelleApe": "",
    "trancheEffectifs": "32",
    "dateCreation": "1994-07-01",
    "lat": 43.604916394,
    "lng": 1.07577475
  },
  {
    "id": "31221307700059",
    "siret": "31221307700059",
    "siren": "312213077",
    "nom": "ESCALIERS DECORS - ESCA INDUSTRIE (ED - EI)",
    "adresse": "ZONE ARTISANALE ROUTE DE COULANGES 89480 CRAIN",
    "codePostal": "89480",
    "ville": "89129",
    "departement": "89",
    "codeApe": "25.11Z",
    "libelleApe": "",
    "trancheEffectifs": "12",
    "dateCreation": "1978-01-01",
    "lat": 47.529142641,
    "lng": 3.5455763839
  },
  {
    "id": "33391638500250",
    "siret": "33391638500250",
    "siren": "333916385",
    "nom": "EIFFAGE METAL",
    "adresse": "3-7 3 PLACE DE L’EUROPE 78140 VELIZY-VILLACOUBLAY",
    "codePostal": "78140",
    "ville": "78640",
    "departement": "78",
    "codeApe": "25.11Z",
    "libelleApe": "",
    "trancheEffectifs": "41",
    "dateCreation": "1985-10-01",
    "lat": 48.779859713,
    "lng": 2.2057974863
  },
  {
    "id": "42575002300011",
    "siret": "42575002300011",
    "siren": "425750023",
    "nom": "WALTEFAUGLE",
    "adresse": "24 ROUTE DE CHAMPLITTE 70180 DAMPIERRE-SUR-SALON",
    "codePostal": "70180",
    "ville": "70198",
    "departement": "70",
    "codeApe": "25.11Z",
    "libelleApe": "",
    "trancheEffectifs": "22",
    "dateCreation": "1957-01-01",
    "lat": 47.559986972,
    "lng": 5.6723524481
  },
  {
    "id": "30857515800024",
    "siret": "30857515800024",
    "siren": "308575158",
    "nom": "BRIAND CONSTRUCTIONS METALLIQUES",
    "adresse": "29 AVENUE DES SABLES 85500 LES HERBIERS",
    "codePostal": "85500",
    "ville": "85109",
    "departement": "85",
    "codeApe": "25.11Z",
    "libelleApe": "",
    "trancheEffectifs": "22",
    "dateCreation": "1977-01-01",
    "lat": 46.8657713493711,
    "lng": -1.02572286771458
  },
  {
    "id": "43278978200021",
    "siret": "43278978200021",
    "siren": "432789782",
    "nom": "BOLMIN PROFILS",
    "adresse": "ZAC DU LONG BUISSON 140 RUE ROLAND GARROS 27000 EVREUX",
    "codePostal": "27000",
    "ville": "27229",
    "departement": "27",
    "codeApe": "25.11Z",
    "libelleApe": "",
    "trancheEffectifs": "21",
    "dateCreation": "2000-07-31",
    "lat": 49.007915268,
    "lng": 1.1800358978
  },