[
  {
    "id": "05750553900429",
    "siret": "05750553900429",
    "siren": "057505539",
    "nom": "VICAT (VICAT)",
    "adresse": "LES TROIS VALLONS 4 RUE ARISTIDE BERGES 38080 L'ISLE-D'ABEAU",
    "codePostal": "38080",
    "ville": "38193",
    "departement": "38",
    "codeApe": "23.51Z",
    "libelleApe": "",
    "trancheEffectifs": "42",
    "dateCreation": "1900-01-01",
    "lat": 45.6060036542992,
    "lng": 5.21769499742675
  },
  {
    "id": "37791706700466",
    "siret": "37791706700466",
    "siren": "377917067",
    "nom": "EQIOM",
    "adresse": "ZAC DANTON 10 AVENUE DE L'ARCHE 92400 COURBEVOIE",
    "codePostal": "92400",
    "ville": "92026",
    "departement": "92",
    "codeApe": "23.51Z",
    "libelleApe": "",
    "trancheEffectifs": "41",
    "dateCreation": "1990-04-30",
    "lat": 48.8954790538768,
    "lng": 2.23883737139983
  },
  {
    "id": "30213556100835",
    "siret": "30213556100835",
    "siren": "302135561",
    "nom": "LAFARGE CIMENTS (LC)",
    "adresse": "14-16 14 BOULEVARD GARIBALDI 92130 ISSY-LES-MOULINEAUX",
    "codePostal": "92130",
    "ville": "92040",
    "departement": "92",
    "codeApe": "23.51Z",
    "libelleApe": "",
    "trancheEffectifs": "41",
    "dateCreation": "1900-01-01",
    "lat": 48.8225713800445,
    "lng": 2.26162828787134
  },
  {
    "id": "65480068900543",
    "siret": "65480068900543",
    "siren": "654800689",
    "nom": "HEIDELBERG MATERIALS FRANCE CIMENTS (HM FRANCE CIMENTS)",
    "adresse": "TOUR ALTO 4 PLACE DES SAISONS 92400 COURBEVOIE",
    "codePostal": "92400",
    "ville": "92026",
    "departement": "92",
    "codeApe": "23.51Z",
    "libelleApe": "",
    "trancheEffectifs": "42",
    "dateCreation": "1965-01-01",
    "lat": 48.8893520671003,
    "lng": 2.25127448746517
  },
  {
    "id": "77813049200227",
    "siret": "77813049200227",
    "siren": "778130492",
    "nom": "IMERYS ALUMINATES",
    "adresse": "43 QUAI DE GRENELLE 75015 PARIS",
    "codePostal": "75015",
    "ville": "75115",
    "departement": "75",
    "codeApe": "23.51Z",
    "libelleApe": "",
    "trancheEffectifs": "32",
    "dateCreation": "1976-01-01",
    "lat": 48.851265866,
    "lng": 2.2862120719
  },
  {
    "id": "82363574300029",
    "siret": "82363574300029",
    "siren": "823635743",
    "nom": "RHONE CIMENTS",
    "adresse": "ZI LA MOTTE 6 RUE LOUIS ARMAND 26800 PORTES-LES-VALENCE",
    "codePostal": "26800",
    "ville": "26252",
    "departement": "26",
    "codeApe": "23.51Z",
    "libelleApe": "",
    "trancheEffectifs": "12",
    "dateCreation": "2016-11-03",
    "lat": 44.892594004,
    "lng": 4.8586540218
  },
  {
    "id": "80521739500062",
    "siret": "80521739500062",
    "siren": "805217395",
    "nom": "HOLCIM HAUT RHIN",
    "adresse": "2 RUE DES GRAVIERES 68300 SAINT-LOUIS",
    "codePostal": "68300",
    "ville": "68297",
    "departement": "68",
    "codeApe": "23.51Z",
    "libelleApe": "",
    "trancheEffectifs": "22",
    "dateCreation": "2014-10-15",
    "lat": 47.6268770377775,
    "lng": 7.51742596961464
  },
  {
    "id": "81525029500020",
    "siret": "81525029500020",
    "siren": "815250295",
    "nom": "CIMENTS DES TROIS FRONTIERES",
    "adresse": "2 RUE DE LA TUILERIE 68520 BURNHAUPT-LE-HAUT",
    "codePostal": "68520",
    "ville": "68060",
    "departement": "68",
    "codeApe": "23.51Z",
    "libelleApe": "",
    "trancheEffectifs": "NN",
    "dateCreation": "2015-11-30",
    "lat": 47.737421994,
    "lng": 7.1309907256
  },
  {
    "id": "81602028300080",
    "siret": "81602028300080",
    "siren": "816020283",
    "nom": "LHOIST FRANCE OUEST",
    "adresse": "15 RUE HENRI DAGALLIER 38100 GRENOBLE",
    "codePostal": "38100",
    "ville": "38185",
    "departement": "38",
    "codeApe": "23.52Z",
    "libelleApe": "",
    "trancheEffectifs": "22",
    "dateCreation": "1960-01-01",
    "lat": 45.1597581211187,
    "lng": 5.70776387333975
  },
  {
    "id": "33127830900082",
    "siret": "33127830900082",
    "siren": "331278309",
    "nom": "CARRIERES ET CHAUX BALTHAZARD ET COTTE",
    "adresse": "15 RUE HENRI DAGALLIER 38100 GRENOBLE",
    "codePostal": "38100",
    "ville": "38185",
    "departement": "38",
    "codeApe": "23.52Z",
    "libelleApe": "",
    "trancheEffectifs": "21",
    "dateCreation": "1984-09-24",
    "lat": 45.1597581211187,
    "lng": 5.70776387333975
  },
  {
    "id": "34914014500013",
    "siret": "34914014500013",
    "siren": "349140145",
    "nom": "SOC EUROPEENNE DES CHAUX ET LIANTS",
    "adresse": "HAMEAU DE FLOSAILLES 2745 ROUTE DU BUGEY 38300 SAINT-SAVIN",
    "codePostal": "38300",
    "ville": "38455",
    "departement": "38",
    "codeApe": "23.52Z",
    "libelleApe": "",
    "trancheEffectifs": "11",
    "dateCreation": "1989-01-01",
    "lat": 45.644095923,
    "lng": 5.2988913749
  },
  {
    "id": "43316064500027",
    "siret": "43316064500027",
    "siren": "433160645",
    "nom": "DANIEL PINEL",
    "adresse": "39 RUE DES JACQUETS 03450 EBREUIL",
    "codePostal": "03450",
    "ville": "03107",
    "departement": "03",
    "codeApe": "23.52Z",
    "libelleApe": "",
    "trancheEffectifs": "NN",
    "dateCreation": "1998-08-01",
    "lat": 46.132900469,
    "lng": 3.0697183875
  },
  {
    "id": "49764827900014",
    "siret": "49764827900014",
    "siren": "497648279",
    "nom": "POZZO NUOVO",
    "adresse": "10 RUE PUITS NEUF 26200 MONTELIMAR",
    "codePostal": "26200",
    "ville": "26198",
    "departement": "26",
    "codeApe": "23.52Z",
    "libelleApe": "",
    "trancheEffectifs": "02",
    "dateCreation": "2007-04-02",
    "lat": 44.56016189,
    "lng": 4.752569911
  },
  {
    "id": "50497304100024",
    "siret": "50497304100024",
    "siren": "504973041",
    "nom": "MICHEL RODET",
    "adresse": "86 CHEMIN DE LA PINATTE 07130 SAINT-PERAY",
    "codePostal": "07130",
    "ville": "07281",
    "departement": "07",
    "codeApe": "23.52Z",
    "libelleApe": "",
    "trancheEffectifs": "NN",
    "dateCreation": "2008-01-31",
    "lat": 44.923146075,
    "lng": 4.8357124894
  },
  {
    "id": "34902027100046",
    "siret": "34902027100046",
    "siren": "349020271",
    "nom": "CARRIERES & FOURS A CHAUX DE DUGNY",
    "adresse": "TOUR W 102 TERRASSE BOIELDIEU 92800 PUTEAUX",
    "codePostal": "92800",
    "ville": "92062",
    "departement": "92",
    "codeApe": "23.52Z",
    "libelleApe": "",
    "trancheEffectifs": "21",
    "dateCreation": "1988-12-21",
    "lat": 48.889337928,
    "lng": 2.2383381517
  },
  {
    "id": "34239979700048",
    "siret": "34239979700048",
    "siren": "342399797",
    "nom": "SOC DES FOURS A CHAUX DE SORCY",
    "adresse": "TERRASSE BOIELDIEU 92800 PUTEAUX",
    "codePostal": "92800",
    "ville": "92062",
    "departement": "92",
    "codeApe": "23.52Z",
    "libelleApe": "",
    "trancheEffectifs": "21",
    "dateCreation": "1987-09-15",
    "lat": 48.889346595,
    "lng": 2.2397018307
  },
  {
    "id": "31213977700022",
    "siret": "31213977700022",
    "siren": "312139777",
    "nom": "HEIDELBERG MATERIALS FRANCE SOCLI",
    "adresse": "65370 IZAOURT",
    "codePostal": "65370",
    "ville": "65230",
    "departement": "65",
    "codeApe": "23.52Z",
    "libelleApe": "",
    "trancheEffectifs": "12",
    "dateCreation": "1978-01-01",
    "lat": 43.0141354677984,
    "lng": 0.607656778670675
  },
  {
    "id": "47902499400036",
    "siret": "47902499400036",
    "siren": "479024994",
    "nom": "CHAUX DE WASSELONNE",
    "adresse": "42 RUE DE HOHENGOEFT 67310 WASSELONNE",
    "codePostal": "67310",
    "ville": "67520",
    "departement": "67",
    "codeApe": "23.52Z",
    "libelleApe": "",
    "trancheEffectifs": "01",
    "dateCreation": "2004-10-13",
    "lat": 48.642017925,
    "lng": 7.4481729282
  },
  {
    "id": "80224932600017",
    "siret": "80224932600017",
    "siren": "802249326",
    "nom": "CAJURA",
    "adresse": "28 RUE SCHWEIGHAEUSER 67000 STRASBOURG",
    "codePostal": "67000",
    "ville": "67482",
    "departement": "67",
    "codeApe": "23.52Z",
    "libelleApe": "",
    "trancheEffectifs": "NN",
    "dateCreation": "2014-04-01",
    "lat": 48.5874691181016,
    "lng": 7.76732370313167
  },
  {
    "id": "51786694300023",
    "siret": "51786694300023",
    "siren": "517866943",
    "nom": "GUILLAUME DUCHMANN (ATELIER DUCHMANN GUILLAUME)",
    "adresse": "6 RUE DES NOYERS 67670 WALTENHEIM-SUR-ZORN",
    "codePostal": "67670",
    "ville": "67516",
    "departement": "67",
    "codeApe": "23.52Z",
    "libelleApe": "",
    "trancheEffectifs": "NN",
    "dateCreation": "2009-10-23",
    "lat": 48.745635333,
    "lng": 7.6315011322
  },
  {
    "id": "67588005800010",
    "siret": "67588005800010",
    "siren": "675880058",
    "nom": "CHAUX MICHEL BOEHM & CIE",
    "adresse": "LIEUDIT MUNCHHOF RD 118 67310 DAHLENHEIM",
    "codePostal": "67310",
    "ville": "67081",
    "departement": "67",
    "codeApe": "23.52Z",
    "libelleApe": "",
    "trancheEffectifs": "03",
    "dateCreation": "1958-01-01",
    "lat": 48.579746226,
    "lng": 7.493387777
  },
  {
    "id": "89685028600510",
    "siret": "89685028600510",
    "siren": "896850286",
    "nom": "ALKERN FRANCE",
    "adresse": "ZI PARC DE LA MOTTE AU BOIS RUE ANDRE BIGOTTE 62440 HARNES",
    "codePostal": "62440",
    "ville": "62413",
    "departement": "62",
    "codeApe": "23.61Z",
    "libelleApe": "",
    "trancheEffectifs": "41",
    "dateCreation": "1968-01-01",
    "lat": 50.467745469,
    "lng": 2.912099287
  },
  {
    "id": "97632030900587",
    "siret": "97632030900587",
    "siren": "976320309",
    "nom": "KP1",
    "adresse": "91 ALLEE DES FENAISONS 84000 AVIGNON",
    "codePostal": "84000",
    "ville": "84007",
    "departement": "84",
    "codeApe": "23.61Z",
    "libelleApe": "",
    "trancheEffectifs": "42",
    "dateCreation": "1963-01-01",
    "lat": 43.92743288,
    "lng": 4.8478824696
  },
  {
    "id": "30198456300223",
    "siret": "30198456300223",
    "siren": "301984563",
    "nom": "STRADAL",
    "adresse": "47 AVENUE DES GENOTTES 95800 CERGY",
    "codePostal": "95800",
    "ville": "95127",
    "departement": "95",
    "codeApe": "23.61Z",
    "libelleApe": "",
    "trancheEffectifs": "41",
    "dateCreation": "1975-01-01",
    "lat": 49.0544630511458,
    "lng": 2.03970059653708
  },
  {
    "id": "48810696400015",
    "siret": "48810696400015",
    "siren": "488106964",
    "nom": "SOCIETE D'ETUDES ET D'APPLICATIONS DE COMPOSANTS GUIRAUD FRERES (SEAC GF)",
    "adresse": "47 BOULEVARD DE SUISSE 31200 TOULOUSE",
    "codePostal": "31200",
    "ville": "31555",
    "departement": "31",
    "codeApe": "23.61Z",
    "libelleApe": "",
    "trancheEffectifs": "41",
    "dateCreation": "2005-12-30",
    "lat": 43.614790533,
    "lng": 1.4199570054
  },
  {
    "id": "56208734600986",
    "siret": "56208734600986",
    "siren": "562087346",
    "nom": "BONNA SABLA",
    "adresse": "681 ROUTE DE LA PROVENCE 13113 LAMANON",
    "codePostal": "13113",
    "ville": "13049",
    "departement": "13",
    "codeApe": "23.61Z",
    "libelleApe": "",
    "trancheEffectifs": "41",
    "dateCreation": "1956-01-01",
    "lat": 43.701259028,
    "lng": 5.0933779895
  },
  {
    "id": "30732221400015",
    "siret": "30732221400015",
    "siren": "307322214",
    "nom": "RECTOR LESAGE (RECTOR)",
    "adresse": "16 RUE DE HIRTZBACH 68200 MULHOUSE",
    "codePostal": "68200",
    "ville": "68224",
    "departement": "68",
    "codeApe": "23.61Z",
    "libelleApe": "",
    "trancheEffectifs": "41",
    "dateCreation": "1976-01-01",
    "lat": 47.7531529031698,
    "lng": 7.30173747423748
  },
  {
    "id": "39278076300018",
    "siret": "39278076300018",
    "siren": "392780763",
    "nom": "ALTA CONSTRUCTIONS",
    "adresse": "90 RUE DES LACS 79290 LORETZ-D'ARGENTON",
    "codePostal": "79290",
    "ville": "79014",
    "departement": "79",
    "codeApe": "23.61Z",
    "libelleApe": "",
    "trancheEffectifs": "12",
    "dateCreation": "1993-10-01",
    "lat": 47.0436290223318,
    "lng": -0.263775053533614
  },
  {
    "id": "70020012400019",
    "siret": "70020012400019",
    "siren": "700200124",
    "nom": "LIB INDUSTRIES",
    "adresse": "LD LA BEGUDE DE VERS 30210 VERS-PONT-DU-GARD",
    "codePostal": "30210",
    "ville": "30346",
    "departement": "30",
    "codeApe": "23.61Z",
    "libelleApe": "",
    "trancheEffectifs": "22",
    "dateCreation": "1970-01-01",
    "lat": 43.955834312,
    "lng": 4.5390537422
  },
  {
    "id": "39474784400014",
    "siret": "39474784400014",
    "siren": "394747844",
    "nom": "PRADIER",
    "adresse": "6 RUE VICTOR HUGO 84000 AVIGNON",
    "codePostal": "84000",
    "ville": "84007",
    "departement": "84",
    "codeApe": "23.61Z",
    "libelleApe": "",
    "trancheEffectifs": "21",
    "dateCreation": "1994-04-01",
    "lat": 43.947888867,
    "lng": 4.8019952256
  },
  {
    "id": "37904300300175",
    "siret": "37904300300175",
    "siren": "379043003",
    "nom": "FABEMI PROVENCE",
    "adresse": "LE PONT DOUBLE 26290 DONZERE",
    "codePostal": "26290",
    "ville": "26116",
    "departement": "26",
    "codeApe": "23.61Z",
    "libelleApe": "",
    "trancheEffectifs": "12",
    "dateCreation": "1990-08-16",
    "lat": 44.413355589,
    "lng": 4.7216789423
  },
  {
    "id": "38092923200029",
    "siret": "38092923200029",
    "siren": "380929232",
    "nom": "SOBEMO",
    "adresse": "LA  CARONNIERE 73800 MONTMELIAN",
    "codePostal": "73800",
    "ville": "73171",
    "departement": "73",
    "codeApe": "23.61Z",
    "libelleApe": "",
    "trancheEffectifs": "22",
    "dateCreation": "1991-02-06",
    "lat": 45.5042763598836,
    "lng": 6.06810435655912
  },
  {
    "id": "39010516100041",
    "siret": "39010516100041",
    "siren": "390105161",
    "nom": "SPURGIN LEONHART",
    "adresse": "ROUTE DE STRASBOURG 67600 SELESTAT",
    "codePostal": "67600",
    "ville": "67462",
    "departement": "67",
    "codeApe": "23.61Z",
    "libelleApe": "",
    "trancheEffectifs": "32",
    "dateCreation": "1993-01-22",
    "lat": 48.283155135,
    "lng": 7.4743318235
  },
  {
    "id": "49916347500019",
    "siret": "49916347500019",
    "siren": "499163475",
    "nom": "FABEMI STRUCTURES",
    "adresse": "LE PONT DOUBLE 26290 DONZERE",
    "codePostal": "26290",
    "ville": "26116",
    "departement": "26",
    "codeApe": "23.61Z",
    "libelleApe": "",
    "trancheEffectifs": "21",
    "dateCreation": "2007-04-26",
    "lat": 44.409061028,
    "lng": 4.7118440809
  },
  {
    "id": "96020005300150",
    "siret": "96020005300150",
    "siren": "960200053",
    "nom": "XELLA THERMOPIERRE",
    "adresse": "LE PRE CHATELAIN ROUTE PRE CHATELAIN 38300 SAINT-SAVIN",
    "codePostal": "38300",
    "ville": "38455",
    "departement": "38",
    "codeApe": "23.61Z",
    "libelleApe": "",
    "trancheEffectifs": "22",
    "dateCreation": "1977-01-01",
    "lat": 45.632270677,
    "lng": 5.2975630364
  },
  {
    "id": "51000730500012",
    "siret": "51000730500012",
    "siren": "510007305",
    "nom": "COMPOBAIE SOLUTIONS",
    "adresse": "ZONE D'ACTIVITE DE LA VIALETTE 81150 MARSSAC-SUR-TARN",
    "codePostal": "81150",
    "ville": "81156",
    "departement": "81",
    "codeApe": "23.61Z",
    "libelleApe": "",
    "trancheEffectifs": "22",
    "dateCreation": "2009-01-16",
    "lat": 43.916547429,
    "lng": 2.0392221115
  },
  {
    "id": "30157036200071",
    "siret": "30157036200071",
    "siren": "301570362",
    "nom": "FABEMI BOURGOGNE",
    "adresse": "LE PONT DOUBLE 26290 DONZERE",
    "codePostal": "26290",
    "ville": "26116",
    "departement": "26",
    "codeApe": "23.61Z",
    "libelleApe": "",
    "trancheEffectifs": "03",
    "dateCreation": "1974-01-01",
    "lat": 44.413355589,
    "lng": 4.7216789423
  },
  {
    "id": "39413459700019",
    "siret": "39413459700019",
    "siren": "394134597",
    "nom": "LYON AGGLOS",
    "adresse": "LE PONT DOUBLE 26290 DONZERE",
    "codePostal": "26290",
    "ville": "26116",
    "departement": "26",
    "codeApe": "23.61Z",
    "libelleApe": "",
    "trancheEffectifs": "12",
    "dateCreation": "1994-01-07",
    "lat": 44.413355589,
    "lng": 4.7216789423
  },
  {
    "id": "84472383300027",
    "siret": "84472383300027",
    "siren": "844723833",
    "nom": "SBC PREFA (SBC PREFA)",
    "adresse": "600 RUE DU LAC 38300 NIVOLAS-VERMELLE",
    "codePostal": "38300",
    "ville": "38276",
    "departement": "38",
    "codeApe": "23.61Z",
    "libelleApe": "",
    "trancheEffectifs": "11",
    "dateCreation": "2018-12-17",
    "lat": 45.572423728,
    "lng": 5.3090242055
  },
  {
    "id": "55378019800014",
    "siret": "55378019800014",
    "siren": "553780198",
    "nom": "PLATTARD SAS",
    "adresse": "414 AVENUE DE LA PLAGE 69400 VILLEFRANCHE-SUR-SAONE",
    "codePostal": "69400",
    "ville": "69264",
    "departement": "69",
    "codeApe": "23.61Z",
    "libelleApe": "",
    "trancheEffectifs": "22",
    "dateCreation": "1955-01-01",
    "lat": 45.979648457,
    "lng": 4.7461625661
  },
  {
    "id": "38003208600056",
    "siret": "38003208600056",
    "siren": "380032086",
    "nom": "IDB",
    "adresse": "BATIMENT B ESCALIER 7 175 BOULEVARD DE LA REPUBLIQUE 92210 SAINT-CLOUD",
    "codePostal": "92210",
    "ville": "92064",
    "departement": "92",
    "codeApe": "23.61Z",
    "libelleApe": "",
    "trancheEffectifs": "12",
    "dateCreation": "1990-10-01",
    "lat": 48.854900491,
    "lng": 2.2117497066
  },
  {
    "id": "63378032500047",
    "siret": "63378032500047",
    "siren": "633780325",
    "nom": "ETABLISSEMENTS FRANCIOLI",
    "adresse": "ZA DE ZA DE LA BARRE 01480 CHALEINS",
    "codePostal": "01480",
    "ville": "01075",
    "departement": "01",
    "codeApe": "23.61Z",
    "libelleApe": "",
    "trancheEffectifs": "21",
    "dateCreation": "1963-01-01",
    "lat": 46.034281746,
    "lng": 4.8079748597
  },
  {
    "id": "39312518200039",
    "siret": "39312518200039",
    "siren": "393125182",
    "nom": "INDUSTRIE BETON DU FOREZ IBF",
    "adresse": "11 BOULEVARD JEAN JAURES 42160 ANDREZIEUX-BOUTHEON",
    "codePostal": "42160",
    "ville": "42005",
    "departement": "42",
    "codeApe": "23.61Z",
    "libelleApe": "",
    "trancheEffectifs": "11",
    "dateCreation": "1993-10-01",
    "lat": 45.52841712,
    "lng": 4.2512236205
  },
  {
    "id": "90520299000016",
    "siret": "90520299000016",
    "siren": "905202990",
    "nom": "GIE FABRICATION ADDITIVE",
    "adresse": "PARC TERTIAIRE RIVEO 300 RUE DE LILLE 59520 MARQUETTE-LEZ-LILLE",
    "codePostal": "59520",
    "ville": "59386",
    "departement": "59",
    "codeApe": "23.61Z",
    "libelleApe": "",
    "trancheEffectifs": "NN",
    "dateCreation": "2021-11-08",
    "lat": 50.6638995273246,
    "lng": 3.06251396261361
  },
  {
    "id": "48073028200013",
    "siret": "48073028200013",
    "siren": "480730282",
    "nom": "PBA",
    "adresse": "LES PRES GIRARD 39160 SAINT-AMOUR",
    "codePostal": "39160",
    "ville": "39475",
    "departement": "39",
    "codeApe": "23.61Z",
    "libelleApe": "",
    "trancheEffectifs": "11",
    "dateCreation": "2004-10-04",
    "lat": 46.44231103,
    "lng": 5.3378161286
  },
  {
    "id": "31764057100038",
    "siret": "31764057100038",
    "siren": "317640571",
    "nom": "G.G.I.",
    "adresse": "CARRIERES D ANTOGER 73100 GRESY-SUR-AIX",
    "codePostal": "73100",
    "ville": "73128",
    "departement": "73",
    "codeApe": "23.61Z",
    "libelleApe": "",
    "trancheEffectifs": "21",
    "dateCreation": "1980-01-01",
    "lat": 45.719647563,
    "lng": 5.9148031623
  },
  {
    "id": "63205232000090",
    "siret": "63205232000090",
    "siren": "632052320",
    "nom": "CHAPSOL S A",
    "adresse": "SENTE DE LA FORGETTE 77170 COUBERT",
    "codePostal": "77170",
    "ville": "77127",
    "departement": "77",
    "codeApe": "23.61Z",
    "libelleApe": "",
    "trancheEffectifs": "22",
    "dateCreation": "1963-01-01",
    "lat": 48.668323904,
    "lng": 2.6951329982
  },
  {
    "id": "69738019400012",
    "siret": "69738019400012",
    "siren": "697380194",
    "nom": "L'INDUSTRIELLE DU BETON",
    "adresse": "ROUTE DE PRECY 60820 BORAN-SUR-OISE",
    "codePostal": "60820",
    "ville": "60086",
    "departement": "60",
    "codeApe": "23.61Z",
    "libelleApe": "",
    "trancheEffectifs": "22",
    "dateCreation": "1900-01-01",
    "lat": 49.178195236,
    "lng": 2.3634259312
  },
  {
    "id": "33977979500030",
    "siret": "33977979500030",
    "siren": "339779795",
    "nom": "SOTRACO INDUSTRIES (SOTRACO INDUSTRIES)",
    "adresse": "LE PONT DOUBLE 26290 DONZERE",
    "codePostal": "26290",
    "ville": "26116",
    "departement": "26",
    "codeApe": "23.61Z",
    "libelleApe": "",
    "trancheEffectifs": "12",
    "dateCreation": "1986-12-24",
    "lat": 44.413355589,
    "lng": 4.7216789423
  },
  {
    "id": "38533036000038",
    "siret": "38533036000038",
    "siren": "385330360",
    "nom": "FABEMI ENVIRONNEMENT",
    "adresse": "LE PONT DOUBLE 26290 DONZERE",
    "codePostal": "26290",
    "ville": "26116",
    "departement": "26",
    "codeApe": "23.61Z",
    "libelleApe": "",
    "trancheEffectifs": "12",
    "dateCreation": "1992-04-01",
    "lat": 44.413355589,
    "lng": 4.7216789423
  },
  {
    "id": "38267912400026",
    "siret": "38267912400026",
    "siren": "382679124",
    "nom": "EUROBETON FRANCE",
    "adresse": "ZI LE RIVAL RTE DEP 519 38870 SAINT-SIMEON-DE-BRESSIEUX",
    "codePostal": "38870",
    "ville": "38457",
    "departement": "38",
    "codeApe": "23.61Z",
    "libelleApe": "",
    "trancheEffectifs": "22",
    "dateCreation": "1991-06-18",
    "lat": 45.349457234,
    "lng": 5.2777979573
  },
  {
    "id": "30337793100025",
    "siret": "30337793100025",
    "siren": "303377931",
    "nom": "SOCIETE DE BETONS MODERNES ET PREFABRIQUES (SOBEMO)",
    "adresse": "LE PONT DOUBLE 320 ROUTE NATIONALE 7 26290 DONZERE",
    "codePostal": "26290",
    "ville": "26116",
    "departement": "26",
    "codeApe": "23.61Z",
    "libelleApe": "",
    "trancheEffectifs": "03",
    "dateCreation": "1975-01-01",
    "lat": 44.4427899917338,
    "lng": 4.72146500810798
  },
  {
    "id": "81354306300032",
    "siret": "81354306300032",
    "siren": "813543063",
    "nom": "MARGARITELLI FERROVIARIA",
    "adresse": "I 0616135 109 PONTE SAN GIOVANNI VIA ADRIATICA PERUGIA ITALIE",
    "codePostal": "",
    "ville": "",
    "departement": "",
    "codeApe": "23.61Z",
    "libelleApe": "",
    "trancheEffectifs": "11",
    "dateCreation": "2015-10-01",
    "lat": null,
    "lng": null
  },
  {
    "id": "43019642800055",
    "siret": "43019642800055",
    "siren": "430196428",
    "nom": "ARTHEMIA (ARTHEMIA)",
    "adresse": "128 ALLEE DES SABLES 74540 ALBY-SUR-CHERAN",
    "codePostal": "74540",
    "ville": "74002",
    "departement": "74",
    "codeApe": "23.61Z",
    "libelleApe": "",
    "trancheEffectifs": "NN",
    "dateCreation": "2000-04-03",
    "lat": 45.812208476,
    "lng": 6.0308279727
  },
  {
    "id": "49190687100018",
    "siret": "49190687100018",
    "siren": "491906871",
    "nom": "FABEMI ILE DE FRANCE",
    "adresse": "LE PONT DOUBLE 26290 DONZERE",
    "codePostal": "26290",
    "ville": "26116",
    "departement": "26",
    "codeApe": "23.61Z",
    "libelleApe": "",
    "trancheEffectifs": "11",
    "dateCreation": "2006-09-15",
    "lat": 44.413355589,
    "lng": 4.7216789423
  },
  {
    "id": "30735092600019",
    "siret": "30735092600019",
    "siren": "307350926",
    "nom": "PBM 26",
    "adresse": "1135 ROUTE DE DONZERE 26780 MALATAVERNE",
    "codePostal": "26780",
    "ville": "26169",
    "departement": "26",
    "codeApe": "23.61Z",
    "libelleApe": "",
    "trancheEffectifs": "12",
    "dateCreation": "1976-01-01",
    "lat": 44.476668343543,
    "lng": 4.74123212350488
  },
  {
    "id": "32572456500016",
    "siret": "32572456500016",
    "siren": "325724565",
    "nom": "MARCEL SOULIER",
    "adresse": "CONTHE 15000 AURILLAC",
    "codePostal": "15000",
    "ville": "15014",
    "departement": "15",
    "codeApe": "23.61Z",
    "libelleApe": "",
    "trancheEffectifs": "NN",
    "dateCreation": "1961-03-01",
    "lat": 44.912555337,
    "lng": 2.424895119
  },
  {
    "id": "50204196500042",
    "siret": "50204196500042",
    "siren": "502041965",
    "nom": "SAVI",
    "adresse": "ZI PARC DE LA MOTTE AU BOIS RUE ANDRE BIGOTTE 62440 HARNES",
    "codePostal": "62440",
    "ville": "62413",
    "departement": "62",
    "codeApe": "23.61Z",
    "libelleApe": "",
    "trancheEffectifs": "NN",
    "dateCreation": "2008-01-03",
    "lat": 50.467745469,
    "lng": 2.912099287
  },
  {
    "id": "49322111300019",
    "siret": "49322111300019",
    "siren": "493221113",
    "nom": "VALENCE AGGLOS",
    "adresse": "LE PONT DOUBLE 26290 DONZERE",
    "codePostal": "26290",
    "ville": "26116",
    "departement": "26",
    "codeApe": "23.61Z",
    "libelleApe": "",
    "trancheEffectifs": "11",
    "dateCreation": "2007-01-01",
    "lat": 44.413355589,
    "lng": 4.7216789423
  },
  {
    "id": "49409858500016",
    "siret": "49409858500016",
    "siren": "494098585",
    "nom": "FEHR TECHNOLOGIES - RHONE ALPES",
    "adresse": "ZONE D'ACTIVITE EMILE MATHIS RUE DE FROESCHWILLER 67110 REICHSHOFFEN",
    "codePostal": "67110",
    "ville": "67388",
    "departement": "67",
    "codeApe": "23.61Z",
    "libelleApe": "",
    "trancheEffectifs": "21",
    "dateCreation": "2008-06-02",
    "lat": 48.937848953,
    "lng": 7.6840620284
  },
  {
    "id": "40313975100016",
    "siret": "40313975100016",
    "siren": "403139751",
    "nom": "PBM 71 (M.S.A.) (M.S.A.)",
    "adresse": "172 ROUTE DE LA LOIRE 71160 GILLY-SUR-LOIRE",
    "codePostal": "71160",
    "ville": "71220",
    "departement": "71",
    "codeApe": "23.61Z",
    "libelleApe": "",
    "trancheEffectifs": "21",
    "dateCreation": "1995-12-06",
    "lat": 46.539076037,
    "lng": 3.7627309468
  },
  {
    "id": "39935134500026",
    "siret": "39935134500026",
    "siren": "399351345",
    "nom": "SOCIETE NOUVELLE BASALTINE",
    "adresse": "LES COSTES ROUTE DE FLORENSAC 34630 SAINT-THIBERY",
    "codePostal": "34630",
    "ville": "34289",
    "departement": "34",
    "codeApe": "23.61Z",
    "libelleApe": "",
    "trancheEffectifs": "NN",
    "dateCreation": "1994-12-21",
    "lat": 43.389212174,
    "lng": 3.4323668169
  },
  {
    "id": "43180939100011",
    "siret": "43180939100011",
    "siren": "431809391",
    "nom": "FABEMI T.P.",
    "adresse": "LE PONT DOUBLE 26290 DONZERE",
    "codePostal": "26290",
    "ville": "26116",
    "departement": "26",
    "codeApe": "23.61Z",
    "libelleApe": "",
    "trancheEffectifs": "12",
    "dateCreation": "2000-05-03",
    "lat": 44.413355589,
    "lng": 4.7216789423
  },
  {
    "id": "43027669100036",
    "siret": "43027669100036",
    "siren": "430276691",
    "nom": "CONDITIONNEMENT-DECHETS-BETON",
    "adresse": "CHEZ SOCODEI - CD 138 SITE CENTRACO CITE CENTRACO 30200 CODOLET",
    "codePostal": "30200",
    "ville": "30084",
    "departement": "30",
    "codeApe": "23.61Z",
    "libelleApe": "",
    "trancheEffectifs": "12",
    "dateCreation": "2000-03-24",
    "lat": null,
    "lng": null
  },
  {
    "id": "41289542700026",
    "siret": "41289542700026",
    "siren": "412895427",
    "nom": "BLARD",
    "adresse": "42 QUAI DE LA RUELLE 27500 PONT-AUDEMER",
    "codePostal": "27500",
    "ville": "27467",
    "departement": "27",
    "codeApe": "23.61Z",
    "libelleApe": "",
    "trancheEffectifs": "12",
    "dateCreation": "1997-07-03",
    "lat": 49.359860002,
    "lng": 0.5004760564
  },
  {
    "id": "51316761900016",
    "siret": "51316761900016",
    "siren": "513167619",
    "nom": "PREFA DU LEMAN",
    "adresse": "ZA DES CHARBONNIERS ALLEE DES CHARBONNIERS 74160 FEIGERES",
    "codePostal": "74160",
    "ville": "74124",
    "departement": "74",
    "codeApe": "23.61Z",
    "libelleApe": "",
    "trancheEffectifs": "12",
    "dateCreation": "2009-06-03",
    "lat": 46.104396934,
    "lng": 6.0632380254
  },
  {
    "id": "38592023600036",
    "siret": "38592023600036",
    "siren": "385920236",
    "nom": "S C C A T",
    "adresse": "LE PONT DOUBLE 26290 DONZERE",
    "codePostal": "26290",
    "ville": "26116",
    "departement": "26",
    "codeApe": "23.61Z",
    "libelleApe": "",
    "trancheEffectifs": "12",
    "dateCreation": "1959-01-01",
    "lat": 44.413355589,
    "lng": 4.7216789423
  },
  {
    "id": "90114959100017",
    "siret": "90114959100017",
    "siren": "901149591",
    "nom": "BS2A (BETON SOLUTIONS)",
    "adresse": "20 RUE MAURICE RAVEL 69780 MIONS",
    "codePostal": "69780",
    "ville": "69283",
    "departement": "69",
    "codeApe": "23.61Z",
    "libelleApe": "",
    "trancheEffectifs": "NN",
    "dateCreation": "2021-06-28",
    "lat": 45.6614762170876,
    "lng": 4.94406508322796
  },
  {
    "id": "91342854600018",
    "siret": "91342854600018",
    "siren": "913428546",
    "nom": "TERRIO",
    "adresse": "5 RUE DE LA TOUR DU PIN 69004 LYON",
    "codePostal": "69004",
    "ville": "69384",
    "departement": "69",
    "codeApe": "23.61Z",
    "libelleApe": "",
    "trancheEffectifs": "01",
    "dateCreation": "2022-05-06",
    "lat": 45.780325848,
    "lng": 4.8362121613
  },
  {
    "id": "74715159500051",
    "siret": "74715159500051",
    "siren": "747151595",
    "nom": "GEN INDUST REALIS FABRICAT ART CONSTRUCT (GIRFAC)",
    "adresse": "8 PLACE CHARLES DE GAULLE 95210 SAINT-GRATIEN",
    "codePostal": "95210",
    "ville": "95555",
    "departement": "95",
    "codeApe": "23.61Z",
    "libelleApe": "",
    "trancheEffectifs": "12",
    "dateCreation": "1981-06-26",
    "lat": 48.969232419,
    "lng": 2.2868298784
  },
  {
    "id": "85188150800010",
    "siret": "85188150800010",
    "siren": "851881508",
    "nom": "X SOLUTIONS",
    "adresse": "58 CHEMIN DES FOGES 38300 MAUBEC",
    "codePostal": "38300",
    "ville": "38223",
    "departement": "38",
    "codeApe": "23.61Z",
    "libelleApe": "",
    "trancheEffectifs": "NN",
    "dateCreation": "2019-06-04",
    "lat": 45.5786947872691,
    "lng": 5.25711978595967
  },
  {
    "id": "85300048700019",
    "siret": "85300048700019",
    "siren": "853000487",
    "nom": "IDSB PRODUCTION RHONE-ALPES (IDSB PRODUCTION)",
    "adresse": "4 RUE DE HOERDT 67550 ECKWERSHEIM",
    "codePostal": "67550",
    "ville": "67119",
    "departement": "67",
    "codeApe": "23.61Z",
    "libelleApe": "",
    "trancheEffectifs": "12",
    "dateCreation": "2019-08-01",
    "lat": 48.683785375,
    "lng": 7.6977079518
  },
  {
    "id": "75920027200020",
    "siret": "75920027200020",
    "siren": "759200272",
    "nom": "LES PREFABRICATIONS BRESSANES (L.P.B.)",
    "adresse": "284 ROUTE DE MACON 01290 CROTTET",
    "codePostal": "01290",
    "ville": "01134",
    "departement": "01",
    "codeApe": "23.61Z",
    "libelleApe": "",
    "trancheEffectifs": "12",
    "dateCreation": "1959-01-01",
    "lat": 46.290147815,
    "lng": 4.9086389012
  },
  {
    "id": "80456586900018",
    "siret": "80456586900018",
    "siren": "804565869",
    "nom": "ALLIER BETON PREFABRIQUE (ALLIER BETON PREFABRIQUE) (ABP)",
    "adresse": "13 RUE NICOLAS RAMBOURG 03400 YZEURE",
    "codePostal": "03400",
    "ville": "03321",
    "departement": "03",
    "codeApe": "23.61Z",
    "libelleApe": "",
    "trancheEffectifs": "01",
    "dateCreation": "2014-09-01",
    "lat": 46.54778517,
    "lng": 3.3536968214
  },
  {
    "id": "53849305700011",
    "siret": "53849305700011",
    "siren": "538493057",
    "nom": "FABEMI INDUSTRIES",
    "adresse": "LE PONT DOUBLE 26290 DONZERE",
    "codePostal": "26290",
    "ville": "26116",
    "departement": "26",
    "codeApe": "23.61Z",
    "libelleApe": "",
    "trancheEffectifs": "NN",
    "dateCreation": "2011-11-02",
    "lat": 44.413355589,
    "lng": 4.7216789423
  },
  {
    "id": "51815504900027",
    "siret": "51815504900027",
    "siren": "518155049",
    "nom": "JEAN REMBERT (DJITI PRODUCTION)",
    "adresse": "5 CITE CHABERT 26000 VALENCE",
    "codePostal": "26000",
    "ville": "26362",
    "departement": "26",
    "codeApe": "23.61Z",
    "libelleApe": "",
    "trancheEffectifs": "NN",
    "dateCreation": "2009-11-01",
    "lat": 44.9297710514596,
    "lng": 4.89209218432521
  },
  {
    "id": "52217211300014",
    "siret": "52217211300014",
    "siren": "522172113",
    "nom": "POMEL BETON",
    "adresse": "RD 17 ROUTE DE BRASSAC 43360 VERGONGHEON",
    "codePostal": "43360",
    "ville": "43258",
    "departement": "43",
    "codeApe": "23.61Z",
    "libelleApe": "",
    "trancheEffectifs": "11",
    "dateCreation": "2010-04-19",
    "lat": 45.373494554,
    "lng": 3.3200302755
  },
  {
    "id": "53947151600036",
    "siret": "53947151600036",
    "siren": "539471516",
    "nom": "ART & BETON",
    "adresse": "3 RUE PAUL SABATIER 26700 PIERRELATTE",
    "codePostal": "26700",
    "ville": "26235",
    "departement": "26",
    "codeApe": "23.61Z",
    "libelleApe": "",
    "trancheEffectifs": "NN",
    "dateCreation": "2012-01-06",
    "lat": 44.364753003,
    "lng": 4.719966028
  },
  {
    "id": "39431046000032",
    "siret": "39431046000032",
    "siren": "394310460",
    "nom": "ART BETON",
    "adresse": "ZI DU BAS MAS 58 RUE DU PROFESSEUR CALMETTE 42700 FIRMINY",
    "codePostal": "42700",
    "ville": "42095",
    "departement": "42",
    "codeApe": "23.61Z",
    "libelleApe": "",
    "trancheEffectifs": "NN",
    "dateCreation": "1994-01-01",
    "lat": 45.398508546,
    "lng": 4.2980633982
  },
  {
    "id": "49513352200021",
    "siret": "49513352200021",
    "siren": "495133522",
    "nom": "SALIM GUNES (SGUNES)",
    "adresse": "CHEZ M GUNES DURSUN 39 ALLEE DU ROQUET 01600 TREVOUX",
    "codePostal": "01600",
    "ville": "01427",
    "departement": "01",
    "codeApe": "23.61Z",
    "libelleApe": "",
    "trancheEffectifs": "NN",
    "dateCreation": "2007-04-02",
    "lat": 45.940899229,
    "lng": 4.7679292482
  },
  {
    "id": "33973096200026",
    "siret": "33973096200026",
    "siren": "339730962",
    "nom": "ARVENIX",
    "adresse": "ZA LA NOVIALLE 63670 LA ROCHE-BLANCHE",
    "codePostal": "63670",
    "ville": "63302",
    "departement": "63",
    "codeApe": "23.61Z",
    "libelleApe": "",
    "trancheEffectifs": "NN",
    "dateCreation": "1986-12-23",
    "lat": 45.716928072,
    "lng": 3.1523312375
  },
  {
    "id": "38000508200033",
    "siret": "38000508200033",
    "siren": "380005082",
    "nom": "DONZERE AGGLOS",
    "adresse": "LE PONT DOUBLE 26290 DONZERE",
    "codePostal": "26290",
    "ville": "26116",
    "departement": "26",
    "codeApe": "23.61Z",
    "libelleApe": "",
    "trancheEffectifs": "12",
    "dateCreation": "1990-09-18",
    "lat": 44.4084855,
    "lng": 4.7106037527
  },
  {
    "id": "43353206600019",
    "siret": "43353206600019",
    "siren": "433532066",
    "nom": "BAERLOCHER FRANCE",
    "adresse": "ZA LA PRAILLE 225 RUE DE L'INDUSTRIE 01710 THOIRY",
    "codePostal": "01710",
    "ville": "01419",
    "departement": "01",
    "codeApe": "23.61Z",
    "libelleApe": "",
    "trancheEffectifs": "01",
    "dateCreation": "2000-12-01",
    "lat": 46.2276013723073,
    "lng": 5.99600861456615
  },
  {
    "id": "42943355000010",
    "siret": "42943355000010",
    "siren": "429433550",
    "nom": "LES AGGLOMERES D'HERMY",
    "adresse": "1430 AVENUE DE LA LIBERATION 74460 MARNAZ",
    "codePostal": "74460",
    "ville": "74169",
    "departement": "74",
    "codeApe": "23.61Z",
    "libelleApe": "",
    "trancheEffectifs": "NN",
    "dateCreation": "2000-01-01",
    "lat": 46.065643122,
    "lng": 6.5157193595
  },
  {
    "id": "45396998200017",
    "siret": "45396998200017",
    "siren": "453969982",
    "nom": "COPREFA",
    "adresse": "ZI LES PLATIERES RUE BARTHELEMY THIMONIER 69440 MORNANT",
    "codePostal": "69440",
    "ville": "69141",
    "departement": "69",
    "codeApe": "23.61Z",
    "libelleApe": "",
    "trancheEffectifs": "02",
    "dateCreation": "2004-06-01",
    "lat": 45.618511657,
    "lng": 4.7087297333
  },
  {
    "id": "79428088300016",
    "siret": "79428088300016",
    "siren": "794280883",
    "nom": "S.N. GIRARD (GIRARD)",
    "adresse": "5 ROUTE DES PRES D’EAU 74550 PERRIGNIER",
    "codePostal": "74550",
    "ville": "74210",
    "departement": "74",
    "codeApe": "23.61Z",
    "libelleApe": "",
    "trancheEffectifs": "12",
    "dateCreation": "2013-07-02",
    "lat": 46.300201079,
    "lng": 6.4213384154
  },
  {
    "id": "66572025600015",
    "siret": "66572025600015",
    "siren": "665720256",
    "nom": "ENTREPRISE VEUVE BERTRAND ET SES ENFANTS",
    "adresse": "LE PONT DE LAMOTHE 43100 BRIOUDE",
    "codePostal": "43100",
    "ville": "43040",
    "departement": "43",
    "codeApe": "23.61Z",
    "libelleApe": "",
    "trancheEffectifs": "11",
    "dateCreation": "1957-01-01",
    "lat": 45.297617541,
    "lng": 3.3948688793
  },
  {
    "id": "66732006300023",
    "siret": "66732006300023",
    "siren": "667320063",
    "nom": "SARL LA SABLIERE DE CHAPPES",
    "adresse": "ZI DES BONNES 43410 LEMPDES-SUR-ALLAGNON",
    "codePostal": "43410",
    "ville": "43120",
    "departement": "43",
    "codeApe": "23.61Z",
    "libelleApe": "",
    "trancheEffectifs": "12",
    "dateCreation": "1973-01-01",
    "lat": 45.376630798,
    "lng": 3.2798192716
  },
  {
    "id": "43020433900013",
    "siret": "43020433900013",
    "siren": "430204339",
    "nom": "MICHAL PREFA",
    "adresse": "ZI DU POULOUX 46 AVENUE JEAN JAURES 38270 BEAUREPAIRE",
    "codePostal": "38270",
    "ville": "38034",
    "departement": "38",
    "codeApe": "23.61Z",
    "libelleApe": "",
    "trancheEffectifs": "03",
    "dateCreation": "2000-02-01",
    "lat": 45.332898009,
    "lng": 5.0560152159
  },
  {
    "id": "30980153800021",
    "siret": "30980153800021",
    "siren": "309801538",
    "nom": "ETABLISSEMENTS COTTIN",
    "adresse": "1859 ROUTE DE CHAUTAGNE 74910 SEYSSEL",
    "codePostal": "74910",
    "ville": "74269",
    "departement": "74",
    "codeApe": "23.61Z",
    "libelleApe": "",
    "trancheEffectifs": "12",
    "dateCreation": "1980-10-03",
    "lat": 45.938332992,
    "lng": 5.836473956
  },
  {
    "id": "42116384100016",
    "siret": "42116384100016",
    "siren": "421163841",
    "nom": "COMPTOIR DE LA PREFABRICATION (CDLP)",
    "adresse": "CHEMIN DES ILES 38530 BARRAUX",
    "codePostal": "38530",
    "ville": "38027",
    "departement": "38",
    "codeApe": "23.61Z",
    "libelleApe": "",
    "trancheEffectifs": "12",
    "dateCreation": "1998-12-07",
    "lat": 45.428572345,
    "lng": 6.0002680449
  },
  {
    "id": "38337132500010",
    "siret": "38337132500010",
    "siren": "383371325",
    "nom": "ART COMPOSITES",
    "adresse": "116 RUE NICEPHORE NIEPCE 42100 SAINT-ETIENNE",
    "codePostal": "42100",
    "ville": "42218",
    "departement": "42",
    "codeApe": "23.61Z",
    "libelleApe": "",
    "trancheEffectifs": "01",
    "dateCreation": "1991-10-09",
    "lat": 45.40714837,
    "lng": 4.4183924238
  },
  {
    "id": "44348547900010",
    "siret": "44348547900010",
    "siren": "443485479",
    "nom": "COMBISTONE",
    "adresse": "OCTOGONE 74160 NEYDENS",
    "codePostal": "74160",
    "ville": "74201",
    "departement": "74",
    "codeApe": "23.61Z",
    "libelleApe": "",
    "trancheEffectifs": "NN",
    "dateCreation": "2002-02-01",
    "lat": null,
    "lng": null
  },
  {
    "id": "45293217100039",
    "siret": "45293217100039",
    "siren": "452932171",
    "nom": "R L J C PIERRES DE PROVENCE",
    "adresse": "26 RUE HENRI BARBUSSE 93300 AUBERVILLIERS",
    "codePostal": "93300",
    "ville": "93001",
    "departement": "93",
    "codeApe": "23.61Z",
    "libelleApe": "",
    "trancheEffectifs": "NN",
    "dateCreation": "2004-02-25",
    "lat": 48.9033175270473,
    "lng": 2.38890741045933
  },
  {
    "id": "90110860500014",
    "siret": "90110860500014",
    "siren": "901108605",
    "nom": "ART BETON LUMINEUX",
    "adresse": "170 ROUTE DE LA BIOLLE 74930 REIGNIER-ESERY",
    "codePostal": "74930",
    "ville": "74220",
    "departement": "74",
    "codeApe": "23.61Z",
    "libelleApe": "",
    "trancheEffectifs": "NN",
    "dateCreation": "2021-06-22",
    "lat": 46.144004309,
    "lng": 6.2355518719
  },
  {
    "id": "88864680900028",
    "siret": "88864680900028",
    "siren": "888646809",
    "nom": "LUPPI MATERIAUX PREFA",
    "adresse": "ZONE INDUSTRIELLE DES EPINETTES 456 RUE DE BRANMAFAN 73230 BARBY",
    "codePostal": "73230",
    "ville": "73030",
    "departement": "73",
    "codeApe": "23.61Z",
    "libelleApe": "",
    "trancheEffectifs": "01",
    "dateCreation": "2021-08-31",
    "lat": 45.56568059218,
    "lng": 5.97468973679021
  },
  {
    "id": "87918264000018",
    "siret": "87918264000018",
    "siren": "879182640",
    "nom": "SNPPN",
    "adresse": "10 ROUTE DE BANGES 74540 ALLEVES",
    "codePostal": "74540",
    "ville": "74004",
    "departement": "74",
    "codeApe": "23.61Z",
    "libelleApe": "",
    "trancheEffectifs": "11",
    "dateCreation": "2019-11-21",
    "lat": 45.758396007,
    "lng": 6.06652619
  },
  {
    "id": "88002024300023",
    "siret": "88002024300023",
    "siren": "880020243",
    "nom": "PREFATECH",
    "adresse": "LES BELUZES 42720 POUILLY-SOUS-CHARLIEU",
    "codePostal": "42720",
    "ville": "42177",
    "departement": "42",
    "codeApe": "23.61Z",
    "libelleApe": "",
    "trancheEffectifs": "11",
    "dateCreation": "2019-12-23",
    "lat": 46.144711269,
    "lng": 4.1201085269
  },
  {
    "id": "94880155000013",
    "siret": "94880155000013",
    "siren": "948801550",
    "nom": "MANCIPOZ BETON (SELF BETON)",
    "adresse": "22 AVENUE CHANTELOT 69520 GRIGNY",
    "codePostal": "69520",
    "ville": "69096",
    "departement": "69",
    "codeApe": "23.61Z",
    "libelleApe": "",
    "trancheEffectifs": "NN",
    "dateCreation": "2023-02-15",
    "lat": 45.607018336,
    "lng": 4.7682634998
  },
  {
    "id": "97793710100011",
    "siret": "97793710100011",
    "siren": "977937101",
    "nom": "LAMARTINE CONSTRUCTION BETON",
    "adresse": "LES CARRIERES 12 RUE DES GRASSOTS 03230 THIEL-SUR-ACOLIN",
    "codePostal": "03230",
    "ville": "03283",
    "departement": "03",
    "codeApe": "23.61Z",
    "libelleApe": "",
    "trancheEffectifs": "03",
    "dateCreation": "2023-07-20",
    "lat": 46.518802354,
    "lng": 3.5834316089
  },
  {
    "id": "91233844900016",
    "siret": "91233844900016",
    "siren": "912338449",
    "nom": "CHOPARD TRAVAUX SPECIFIQUES (CHOPARD.T.S)",
    "adresse": "LA BIOLLAZ 135 LOTISS. DES BRUYERES 73220 MONTSAPEY",
    "codePostal": "73220",
    "ville": "73175",
    "departement": "73",
    "codeApe": "23.61Z",
    "libelleApe": "",
    "trancheEffectifs": "NN",
    "dateCreation": "2022-03-31",
    "lat": 45.52185999999998,
    "lng": 6.327939999999998
  },
  {
    "id": "77625623200013",
    "siret": "77625623200013",
    "siren": "776256232",
    "nom": "DELTA PREFABRICATION",
    "adresse": "ZONE DU LAC CHEMIN DES ARTISANS 07000 PRIVAS",
    "codePostal": "07000",
    "ville": "07186",
    "departement": "07",
    "codeApe": "23.61Z",
    "libelleApe": "",
    "trancheEffectifs": "21",
    "dateCreation": "1981-10-01",
    "lat": 44.722415832,
    "lng": 4.602962796
  },
  {
    "id": "52325007400011",
    "siret": "52325007400011",
    "siren": "523250074",
    "nom": "SARL KOUKOUI",
    "adresse": "ALLEE 1 17 PLACE DES COLLONGES 69230 SAINT-GENIS-LAVAL",
    "codePostal": "69230",
    "ville": "69204",
    "departement": "69",
    "codeApe": "23.61Z",
    "libelleApe": "",
    "trancheEffectifs": "NN",
    "dateCreation": "2010-03-01",
    "lat": 45.693883341,
    "lng": 4.8053545266
  },
  {
    "id": "43927655100025",
    "siret": "43927655100025",
    "siren": "439276551",
    "nom": "S2B",
    "adresse": "LD LA COTE ROUTE DU SALEVE 74580 VIRY",
    "codePostal": "74580",
    "ville": "74309",
    "departement": "74",
    "codeApe": "23.61Z",
    "libelleApe": "",
    "trancheEffectifs": "NN",
    "dateCreation": "2001-08-28",
    "lat": 46.110057264,
    "lng": 6.0517123979
  },
  {
    "id": "43608011300018",
    "siret": "43608011300018",
    "siren": "436080113",
    "nom": "MOSADROM",
    "adresse": "3 ZONE ARTISANALE 26330 CHATEAUNEUF DE GALAURE",
    "codePostal": "26330",
    "ville": "26083",
    "departement": "26",
    "codeApe": "23.61Z",
    "libelleApe": "",
    "trancheEffectifs": "NN",
    "dateCreation": "1960-01-01",
    "lat": 45.229236612,
    "lng": 4.9602588916
  },
  {
    "id": "43025272600012",
    "siret": "43025272600012",
    "siren": "430252726",
    "nom": "CHAZEY BONS PREFA",
    "adresse": "681 ROUTE DE BOURG 01300 CHAZEY-BONS",
    "codePostal": "01300",
    "ville": "01098",
    "departement": "01",
    "codeApe": "23.61Z",
    "libelleApe": "",
    "trancheEffectifs": "12",
    "dateCreation": "2000-03-24",
    "lat": 45.80825435,
    "lng": 5.6803064018
  },
  {
    "id": "77919572600012",
    "siret": "77919572600012",
    "siren": "779195726",
    "nom": "GARCIA FRERES",
    "adresse": "33 AVENUE DE LA MARGERIDE 63000 CLERMONT-FERRAND",
    "codePostal": "63000",
    "ville": "63113",
    "departement": "63",
    "codeApe": "23.61Z",
    "libelleApe": "",
    "trancheEffectifs": "02",
    "dateCreation": "1973-01-01",
    "lat": 45.759213369,
    "lng": 3.1245617745
  },
  {
    "id": "83846853600035",
    "siret": "83846853600035",
    "siren": "838468536",
    "nom": "MINERALTECH",
    "adresse": "620 ROUTE DE SAINT-FELIX 74150 RUMILLY",
    "codePostal": "74150",
    "ville": "74225",
    "departement": "74",
    "codeApe": "23.61Z",
    "libelleApe": "",
    "trancheEffectifs": "01",
    "dateCreation": "2018-03-26",
    "lat": 45.8398191884249,
    "lng": 5.96173959558454
  },
  {
    "id": "86520025700059",
    "siret": "86520025700059",
    "siren": "865200257",
    "nom": "SNTR",
    "adresse": "2 AVENUE DE PALARIN 31120 PORTET-SUR-GARONNE",
    "codePostal": "31120",
    "ville": "31433",
    "departement": "31",
    "codeApe": "23.61Z",
    "libelleApe": "",
    "trancheEffectifs": "NN",
    "dateCreation": "1965-01-01",
    "lat": 43.526305031,
    "lng": 1.3973789098
  },
  {
    "id": "42266655200027",
    "siret": "42266655200027",
    "siren": "422666552",
    "nom": "ALBON PREFA",
    "adresse": "ROUTE DE VERMENAS 26140 ALBON",
    "codePostal": "26140",
    "ville": "26002",
    "departement": "26",
    "codeApe": "23.61Z",
    "libelleApe": "",
    "trancheEffectifs": "12",
    "dateCreation": "1999-10-01",
    "lat": 45.2599004226358,
    "lng": 4.83164453036155
  },
  {
    "id": "41347117800033",
    "siret": "41347117800033",
    "siren": "413471178",
    "nom": "CEMEXA",
    "adresse": "2130 AVENUE DES EOLIENNES 26290 DONZERE",
    "codePostal": "26290",
    "ville": "26116",
    "departement": "26",
    "codeApe": "23.61Z",
    "libelleApe": "",
    "trancheEffectifs": "12",
    "dateCreation": "1997-09-01",
    "lat": 44.4492768127004,
    "lng": 4.74819032155704
  },
  {
    "id": "30499465000030",
    "siret": "30499465000030",
    "siren": "304994650",
    "nom": "NOVATAB",
    "adresse": "ZA DU CHANTAROT 335 RTE DU CHANTAROT 38210 VOUREY",
    "codePostal": "38210",
    "ville": "38566",
    "departement": "38",
    "codeApe": "23.61Z",
    "libelleApe": "",
    "trancheEffectifs": "02",
    "dateCreation": "1975-01-01",
    "lat": 45.321033442,
    "lng": 5.5317814715
  },
  {
    "id": "48256600700019",
    "siret": "48256600700019",
    "siren": "482566007",
    "nom": "PACINI DECOR",
    "adresse": "6 QUARTIER DES BRUYERES 38230 CHAVANOZ",
    "codePostal": "38230",
    "ville": "38097",
    "departement": "38",
    "codeApe": "23.61Z",
    "libelleApe": "",
    "trancheEffectifs": "01",
    "dateCreation": "2005-06-01",
    "lat": 45.7575906753443,
    "lng": 5.1556489052265
  },
  {
    "id": "48899266000016",
    "siret": "48899266000016",
    "siren": "488992660",
    "nom": "GROUPEMENT SAVOYARD DE PREFABRICATION",
    "adresse": "ZA LA GOUANNA LD LA GOUANNA 73800 CRUET",
    "codePostal": "73800",
    "ville": "73096",
    "departement": "73",
    "codeApe": "23.61Z",
    "libelleApe": "",
    "trancheEffectifs": "12",
    "dateCreation": "2006-04-01",
    "lat": 45.5169205599167,
    "lng": 6.09055595324654
  },
  {
    "id": "49049131300022",
    "siret": "49049131300022",
    "siren": "490491313",
    "nom": "ART DECOR BRESSAN (DECOPIERRE)",
    "adresse": "219 ROUTE DU COMBARD 01120 SAINTE-CROIX",
    "codePostal": "01120",
    "ville": "01342",
    "departement": "01",
    "codeApe": "23.61Z",
    "libelleApe": "",
    "trancheEffectifs": "NN",
    "dateCreation": "2006-06-01",
    "lat": 45.893465158,
    "lng": 5.0503022021
  },
  {
    "id": "38451076400036",
    "siret": "38451076400036",
    "siren": "384510764",
    "nom": "ABRITEC",
    "adresse": "ZI DE GREZAN 1500 CHEMIN DU MAS DE SORBIER 30000 NIMES",
    "codePostal": "30000",
    "ville": "30189",
    "departement": "30",
    "codeApe": "23.61Z",
    "libelleApe": "",
    "trancheEffectifs": "03",
    "dateCreation": "1992-02-01",
    "lat": 43.837345615,
    "lng": 4.4159454867
  },
  {
    "id": "40227557200020",
    "siret": "40227557200020",
    "siren": "402275572",
    "nom": "ACCORDECLA",
    "adresse": "821 ROUTE DE LA GARE 01150 VAUX-EN-BUGEY",
    "codePostal": "01150",
    "ville": "01431",
    "departement": "01",
    "codeApe": "23.61Z",
    "libelleApe": "",
    "trancheEffectifs": "NN",
    "dateCreation": "1995-09-15",
    "lat": 45.926494715,
    "lng": 5.3433472073
  },
  {
    "id": "49390363700038",
    "siret": "49390363700038",
    "siren": "493903637",
    "nom": "RHONE PREFA",
    "adresse": "2261 ROUTE DE RAVEL 69440 SAINT LAURENT D'AGNY",
    "codePostal": "69440",
    "ville": "69219",
    "departement": "69",
    "codeApe": "23.61Z",
    "libelleApe": "",
    "trancheEffectifs": "03",
    "dateCreation": "2007-01-01",
    "lat": 45.6249448084775,
    "lng": 4.70264144285416
  },
  {
    "id": "49908256800035",
    "siret": "49908256800035",
    "siren": "499082568",
    "nom": "SOCIETE DE VALORISATION DE MATERIAUX DES BARONNIES (SVMB) (S.V.M.B.)",
    "adresse": "175 ROUTE DU TUNNEL 26170 LA PENNE-SUR-L'OUVEZE",
    "codePostal": "26170",
    "ville": "26229",
    "departement": "26",
    "codeApe": "23.61Z",
    "libelleApe": "",
    "trancheEffectifs": "11",
    "dateCreation": "2007-06-04",
    "lat": 44.2450872148467,
    "lng": 5.23084876541253
  },
  {
    "id": "32979071100017",
    "siret": "32979071100017",
    "siren": "329790711",
    "nom": "SOMALBO - SOCIETE DE CONSTRUCTION DE MURS ALCIATO BOUVARD (SOMALBO)",
    "adresse": "ZONE ARTISANALE 627 ROUTE DU ROSAY 74210 SAINT-FERREOL",
    "codePostal": "74210",
    "ville": "74234",
    "departement": "74",
    "codeApe": "23.61Z",
    "libelleApe": "",
    "trancheEffectifs": "02",
    "dateCreation": "1984-04-05",
    "lat": 45.762964527,
    "lng": 6.315652209
  },
  {
    "id": "32052740100014",
    "siret": "32052740100014",
    "siren": "320527401",
    "nom": "L'ID BAT PRODUCTION (IDBAT)",
    "adresse": "1140 ROUTE DU BARRAGE 26190 SAINT-NAZAIRE-EN-ROYANS",
    "codePostal": "26190",
    "ville": "26320",
    "departement": "26",
    "codeApe": "23.61Z",
    "libelleApe": "",
    "trancheEffectifs": "11",
    "dateCreation": "1980-11-01",
    "lat": 45.072870985,
    "lng": 5.2280124357
  },
  {
    "id": "30263675800013",
    "siret": "30263675800013",
    "siren": "302636758",
    "nom": "BELLO-PACOBAT",
    "adresse": "ANNECY LE VIEUX 12 CHE DU GENIE MILITAIRE 74000 ANNECY",
    "codePostal": "74000",
    "ville": "74010",
    "departement": "74",
    "codeApe": "23.61Z",
    "libelleApe": "",
    "trancheEffectifs": "12",
    "dateCreation": "1900-01-01",
    "lat": 45.924035208,
    "lng": 6.1220375831
  },
  {
    "id": "33159334300030",
    "siret": "33159334300030",
    "siren": "331593343",
    "nom": "METABLOK",
    "adresse": "76-78 78 AVENUE RHIN DANUBE 07100 ANNONAY",
    "codePostal": "07100",
    "ville": "07010",
    "departement": "07",
    "codeApe": "23.61Z",
    "libelleApe": "",
    "trancheEffectifs": "03",
    "dateCreation": "1985-01-01",
    "lat": 45.246772452,
    "lng": 4.690681163
  },
  {
    "id": "89100945800029",
    "siret": "89100945800029",
    "siren": "891009458",
    "nom": "SITINAO (STINAO)",
    "adresse": "ROUTE D'AUREC LD LA FRANCE 43210 BAS-EN-BASSET",
    "codePostal": "43210",
    "ville": "43020",
    "departement": "43",
    "codeApe": "23.61Z",
    "libelleApe": "",
    "trancheEffectifs": "12",
    "dateCreation": "2020-11-13",
    "lat": 45.313340903,
    "lng": 4.1162453728
  },
  {
    "id": "89451148400020",
    "siret": "89451148400020",
    "siren": "894511484",
    "nom": "BBD",
    "adresse": "21 ZA DE LANCIN 38510 COURTENAY",
    "codePostal": "38510",
    "ville": "38135",
    "departement": "38",
    "codeApe": "23.61Z",
    "libelleApe": "",
    "trancheEffectifs": "NN",
    "dateCreation": "2021-02-10",
    "lat": 45.7338509725974,
    "lng": 5.40529000166324
  },
  {
    "id": "95850898800036",
    "siret": "95850898800036",
    "siren": "958508988",
    "nom": "SOCAREL SA",
    "adresse": "ZI LD LA BOURNAILLE RTE NATIONALE 518 38540 HEYRIEUX",
    "codePostal": "38540",
    "ville": "38189",
    "departement": "38",
    "codeApe": "23.61Z",
    "libelleApe": "",
    "trancheEffectifs": "12",
    "dateCreation": "1958-01-01",
    "lat": 45.635982999,
    "lng": 5.0473416334
  },
  {
    "id": "79312709300029",
    "siret": "79312709300029",
    "siren": "793127093",
    "nom": "ALPHA MODULES (ALPHAM.3D)",
    "adresse": "620 ROUTE DE SAINT-FELIX 74150 RUMILLY",
    "codePostal": "74150",
    "ville": "74225",
    "departement": "74",
    "codeApe": "23.61Z",
    "libelleApe": "",
    "trancheEffectifs": "02",
    "dateCreation": "2013-05-16",
    "lat": 45.8398191884249,
    "lng": 5.96173959558454
  },
  {
    "id": "79230306700021",
    "siret": "79230306700021",
    "siren": "792303067",
    "nom": "ATELIER MERILLON (LA MANUFACTURE DES BETONS) (LMB)",
    "adresse": "323 CHEMIN DE MEURAT 74540 CUSY",
    "codePostal": "74540",
    "ville": "74097",
    "departement": "74",
    "codeApe": "23.61Z",
    "libelleApe": "",
    "trancheEffectifs": "11",
    "dateCreation": "2013-03-23",
    "lat": 45.77237435,
    "lng": 6.0269651599
  },
  {
    "id": "53849325500011",
    "siret": "53849325500011",
    "siren": "538493255",
    "nom": "FABEMI QUALITE",
    "adresse": "LE PONT DOUBLE 26290 DONZERE",
    "codePostal": "26290",
    "ville": "26116",
    "departement": "26",
    "codeApe": "23.61Z",
    "libelleApe": "",
    "trancheEffectifs": "11",
    "dateCreation": "2011-12-02",
    "lat": 44.4133555888694,
    "lng": 4.72167894231765
  },
  {
    "id": "81875879900022",
    "siret": "81875879900022",
    "siren": "818758799",
    "nom": "VLS VENTE LOCATION SCIAGE (VLS) (VLS)",
    "adresse": "15 B RUE JEAN PIERRE BLACHIER 42150 LA RICAMARIE",
    "codePostal": "42150",
    "ville": "42183",
    "departement": "42",
    "codeApe": "23.61Z",
    "libelleApe": "",
    "trancheEffectifs": "NN",
    "dateCreation": "2016-01-25",
    "lat": 45.4045493280282,
    "lng": 4.36056575467793
  },
  {
    "id": "98282584600016",
    "siret": "98282584600016",
    "siren": "982825846",
    "nom": "COMPASSI PREFA (COMPASSI PREFA)",
    "adresse": "ZONE ARTISANALE DU PONT SAINT CHARLES RTE DE LYON 73160 COGNIN",
    "codePostal": "73160",
    "ville": "73087",
    "departement": "73",
    "codeApe": "23.61Z",
    "libelleApe": "",
    "trancheEffectifs": "03",
    "dateCreation": "2023-12-21",
    "lat": 45.551138383,
    "lng": 5.8888502268
  },
  {
    "id": "34987684700105",
    "siret": "34987684700105",
    "siren": "349876847",
    "nom": "MEHAT CLOTURES 72",
    "adresse": "20 BOULEVARD DE LAVAL 35500 VITRE",
    "codePostal": "35500",
    "ville": "35360",
    "departement": "35",
    "codeApe": "23.61Z",
    "libelleApe": "",
    "trancheEffectifs": "12",
    "dateCreation": "1989-01-01",
    "lat": 48.1236432998304,
    "lng": -1.20018022048434
  },
  {
    "id": "57202403200102",
    "siret": "57202403200102",
    "siren": "572024032",
    "nom": "SATEBA FRANCE (SATEBA)",
    "adresse": "TOUR CB 21 16 PLACE DE L'IRIS 92400 COURBEVOIE",
    "codePostal": "92400",
    "ville": "92026",
    "departement": "92",
    "codeApe": "23.61Z",
    "libelleApe": "",
    "trancheEffectifs": "22",
    "dateCreation": "1957-01-01",
    "lat": 48.8890586600447,
    "lng": 2.24965834595507
  },
  {
    "id": "31154795400017",
    "siret": "31154795400017",
    "siren": "311547954",
    "nom": "BETON-MATERIAUX ET CONSTRUCTIONS (BEMACO)",
    "adresse": "RUE FRANCOIS URANO 08000 WARCQ",
    "codePostal": "08000",
    "ville": "08497",
    "departement": "08",
    "codeApe": "23.61Z",
    "libelleApe": "",
    "trancheEffectifs": "32",
    "dateCreation": "1900-01-01",
    "lat": 49.7671725348144,
    "lng": 4.65600895364012
  },
  {
    "id": "58209071800088",
    "siret": "58209071800088",
    "siren": "582090718",
    "nom": "GROUPE SOPREL (SOPREL)",
    "adresse": "32 RUE DE CAMBRAI 75019 PARIS",
    "codePostal": "75019",
    "ville": "75119",
    "departement": "75",
    "codeApe": "23.61Z",
    "libelleApe": "",
    "trancheEffectifs": "21",
    "dateCreation": "1973-01-01",
    "lat": 48.895710182,
    "lng": 2.3822180059
  },
  {
    "id": "30759418400011",
    "siret": "30759418400011",
    "siren": "307594184",
    "nom": "SEPA",
    "adresse": "CARRIERES LEONHART ROUTE DE STRASBOURG 67600 SELESTAT",
    "codePostal": "67600",
    "ville": "67462",
    "departement": "67",
    "codeApe": "23.61Z",
    "libelleApe": "",
    "trancheEffectifs": "21",
    "dateCreation": "1976-01-01",
    "lat": 48.283155135,
    "lng": 7.4743318235
  },
  {
    "id": "67288081200017",
    "siret": "67288081200017",
    "siren": "672880812",
    "nom": "BETON DE LA HAUTE SEINE (BHS)",
    "adresse": "ROUTE DE RUMILLY 10260 VAUDES",
    "codePostal": "10260",
    "ville": "10399",
    "departement": "10",
    "codeApe": "23.61Z",
    "libelleApe": "",
    "trancheEffectifs": "11",
    "dateCreation": "1967-01-01",
    "lat": 48.172003632,
    "lng": 4.1960606398
  },
  {
    "id": "67698053500022",
    "siret": "67698053500022",
    "siren": "676980535",
    "nom": "HEINRICH BOCK ET CIE",
    "adresse": "CHEMIN MONSAU ZI ROUTE DE WASSELONNE 67790 STEINBOURG",
    "codePostal": "67790",
    "ville": "67478",
    "departement": "67",
    "codeApe": "23.61Z",
    "libelleApe": "",
    "trancheEffectifs": "21",
    "dateCreation": "1969-01-01",
    "lat": 48.757855632,
    "lng": 7.4204199203
  },
  {
    "id": "31219530800035",
    "siret": "31219530800035",
    "siren": "312195308",
    "nom": "ETABLISSEMENTS BIHR",
    "adresse": "14 RUE DE LA PRAIRIE 88190 GOLBEY",
    "codePostal": "88190",
    "ville": "88209",
    "departement": "88",
    "codeApe": "23.61Z",
    "libelleApe": "",
    "trancheEffectifs": "11",
    "dateCreation": "1978-01-01",
    "lat": 48.2005377374505,
    "lng": 6.44148852324029
  },
  {
    "id": "50972626100019",
    "siret": "50972626100019",
    "siren": "509726261",
    "nom": "RESINSOL GMBH PAR RF EURO DROIT",
    "adresse": "57 BAARERSTRASSE ZUG SUISSE",
    "codePostal": "",
    "ville": "",
    "departement": "",
    "codeApe": "23.61Z",
    "libelleApe": "",
    "trancheEffectifs": "NN",
    "dateCreation": "2009-01-01",
    "lat": null,
    "lng": null
  },
  {
    "id": "51388288600015",
    "siret": "51388288600015",
    "siren": "513882886",
    "nom": "FEHR TECHNOLOGIES REGION RHENANE",
    "adresse": "ZONE D ACTIVITE EMILE MATHIS RUE DE FROESCHWILLER 67110 REICHSHOFFEN",
    "codePostal": "67110",
    "ville": "67388",
    "departement": "67",
    "codeApe": "23.61Z",
    "libelleApe": "",
    "trancheEffectifs": "22",
    "dateCreation": "2009-07-21",
    "lat": 48.935315792,
    "lng": 7.6797316243
  },
  {
    "id": "34202847900018",
    "siret": "34202847900018",
    "siren": "342028479",
    "nom": "EPCO",
    "adresse": "RN 7 625 RUE CINSAULT 84100 ORANGE",
    "codePostal": "84100",
    "ville": "84087",
    "departement": "84",
    "codeApe": "23.61Z",
    "libelleApe": "",
    "trancheEffectifs": "22",
    "dateCreation": "1987-08-01",
    "lat": 44.115235006,
    "lng": 4.8453676995
  },
  {
    "id": "81528645500010",
    "siret": "81528645500010",
    "siren": "815286455",
    "nom": "IDSB PRODUCTION NEUILLY (IDSB PRODUCTION)",
    "adresse": "4 RUE DE HOERDT 67550 ECKWERSHEIM",
    "codePostal": "67550",
    "ville": "67119",
    "departement": "67",
    "codeApe": "23.61Z",
    "libelleApe": "",
    "trancheEffectifs": "12",
    "dateCreation": "2015-12-03",
    "lat": 48.683785375,
    "lng": 7.6977079518
  },
  {
    "id": "89801635700011",
    "siret": "89801635700011",
    "siren": "898016357",
    "nom": "THERMIBLOC",
    "adresse": "46 B RUE DE REMIREMONT 88380 ARCHES",
    "codePostal": "88380",
    "ville": "88011",
    "departement": "88",
    "codeApe": "23.61Z",
    "libelleApe": "",
    "trancheEffectifs": "NN",
    "dateCreation": "2021-04-06",
    "lat": 48.115973774,
    "lng": 6.5357861597
  },
  {
    "id": "42218433300033",
    "siret": "42218433300033",
    "siren": "422184333",
    "nom": "BETONS SERVICE LORRAINE",
    "adresse": "ZONE D'ACTIVITE EMILE MATHIS RUE DE FROESCHWILLER 67110 REICHSHOFFEN",
    "codePostal": "67110",
    "ville": "67388",
    "departement": "67",
    "codeApe": "23.61Z",
    "libelleApe": "",
    "trancheEffectifs": "NN",
    "dateCreation": "1998-12-02",
    "lat": 48.937795632,
    "lng": 7.68542464
  },
  {
    "id": "39231688100011",
    "siret": "39231688100011",
    "siren": "392316881",
    "nom": "CHAMPAGN ARDENNE PREFAB MAT INDUS BETON (CAPREMIB)",
    "adresse": "44 RTE NATIONALE 51220 CORMICY",
    "codePostal": "51220",
    "ville": "51171",
    "departement": "51",
    "codeApe": "23.61Z",
    "libelleApe": "",
    "trancheEffectifs": "22",
    "dateCreation": "1993-07-01",
    "lat": 49.3749579185781,
    "lng": 3.92166221503263
  },
  {
    "id": "44449100500013",
    "siret": "44449100500013",
    "siren": "444491005",
    "nom": "ABEPLAST",
    "adresse": "8 PLACE CHARLES DE GAULLE 95210 SAINT-GRATIEN",
    "codePostal": "95210",
    "ville": "95555",
    "departement": "95",
    "codeApe": "23.61Z",
    "libelleApe": "",
    "trancheEffectifs": "11",
    "dateCreation": "2002-12-13",
    "lat": 48.969232419,
    "lng": 2.2868298784
  },
  {
    "id": "90788761600031",
    "siret": "90788761600031",
    "siren": "907887616",
    "nom": "MEHAT CLOTURES 88",
    "adresse": "20 BOULEVARD DE LAVAL 35500 VITRE",
    "codePostal": "35500",
    "ville": "35360",
    "departement": "35",
    "codeApe": "23.61Z",
    "libelleApe": "",
    "trancheEffectifs": "NN",
    "dateCreation": "2021-11-23",
    "lat": 48.1236432998304,
    "lng": -1.20018022048434
  },
  {
    "id": "95365274000010",
    "siret": "95365274000010",
    "siren": "953652740",
    "nom": "FIMAT TP",
    "adresse": "ROUTE DE MARANGE 57280 MAIZIERES-LES-METZ",
    "codePostal": "57280",
    "ville": "57433",
    "departement": "57",
    "codeApe": "23.61Z",
    "libelleApe": "",
    "trancheEffectifs": "11",
    "dateCreation": "2023-05-23",
    "lat": 49.209555513,
    "lng": 6.142440194
  },
  {
    "id": "84748680000018",
    "siret": "84748680000018",
    "siren": "847486800",
    "nom": "DUPAMAT",
    "adresse": "141 RUE DES CUBILOTS 08330 VRIGNE AUX BOIS",
    "codePostal": "08330",
    "ville": "08491",
    "departement": "08",
    "codeApe": "23.61Z",
    "libelleApe": "",
    "trancheEffectifs": "03",
    "dateCreation": "2019-01-03",
    "lat": 49.728123801,
    "lng": 4.8368126884
  },
  {
    "id": "43989033600019",
    "siret": "43989033600019",
    "siren": "439890336",
    "nom": "FEHR TECHNOLOGIES - ILE DE FRANCE",
    "adresse": "ZONE D'ACTIVITE EMILE MATHIS RUE DE FROESCHWILLER 67110 REICHSHOFFEN",
    "codePostal": "67110",
    "ville": "67388",
    "departement": "67",
    "codeApe": "23.61Z",
    "libelleApe": "",
    "trancheEffectifs": "21",
    "dateCreation": "2001-10-01",
    "lat": 48.935475512,
    "lng": 7.6756439585
  },
  {
    "id": "32797515700014",
    "siret": "32797515700014",
    "siren": "327975157",
    "nom": "HEBEL ALZENAU GMBH",
    "adresse": "ALZENAU 2 BRENTANOSTRASSE ALLEMAGNE",
    "codePostal": "",
    "ville": "",
    "departement": "",
    "codeApe": "23.61Z",
    "libelleApe": "",
    "trancheEffectifs": "NN",
    "dateCreation": "1983-09-01",
    "lat": null,
    "lng": null
  },
  {
    "id": "30397096600055",
    "siret": "30397096600055",
    "siren": "303970966",
    "nom": "ADG BETON",
    "adresse": "ZI PARC DE LA MOTTE AU BOIS RUE ANDRE BIGOTTE 62440 HARNES",
    "codePostal": "62440",
    "ville": "62413",
    "departement": "62",
    "codeApe": "23.61Z",
    "libelleApe": "",
    "trancheEffectifs": "12",
    "dateCreation": "1974-01-01",
    "lat": 50.467743439,
    "lng": 2.9092864666
  },
  {
    "id": "88969800700016",
    "siret": "88969800700016",
    "siren": "889698007",
    "nom": "MUANCE",
    "adresse": "TECHNOPOLE DE L'ARBOIS DOM DU PT ARBOI AV LOUIS PHILIBERT 13080 AIX-EN-PROVENCE",
    "codePostal": "13080",
    "ville": "13001",
    "departement": "13",
    "codeApe": "23.61Z",
    "libelleApe": "",
    "trancheEffectifs": "11",
    "dateCreation": "2020-09-18",
    "lat": 43.491186048,
    "lng": 5.3321791609
  },
  {
    "id": "65558040500034",
    "siret": "65558040500034",
    "siren": "655580405",
    "nom": "CILOR SA",
    "adresse": "1 RUE DES LYS 57430 SARRALBE",
    "codePostal": "57430",
    "ville": "57628",
    "departement": "57",
    "codeApe": "23.61Z",
    "libelleApe": "",
    "trancheEffectifs": "NN",
    "dateCreation": "1955-01-01",
    "lat": 48.995885673,
    "lng": 7.0235601611
  },
  {
    "id": "80153821600020",
    "siret": "80153821600020",
    "siren": "801538216",
    "nom": "ROCFABRIK (ROCFABRIK)",
    "adresse": "35 RUE CLEMENCEAU 68400 RIEDISHEIM",
    "codePostal": "68400",
    "ville": "68271",
    "departement": "68",
    "codeApe": "23.61Z",
    "libelleApe": "",
    "trancheEffectifs": "NN",
    "dateCreation": "2014-04-07",
    "lat": 47.745258658,
    "lng": 7.3647672885
  },
  {
    "id": "82423613700017",
    "siret": "82423613700017",
    "siren": "824236137",
    "nom": "SOPRAGGLO CHAUMONT",
    "adresse": "FAUBOURG DES 4 MOULINS 52000 CHAUMONT",
    "codePostal": "52000",
    "ville": "52121",
    "departement": "52",
    "codeApe": "23.61Z",
    "libelleApe": "",
    "trancheEffectifs": "02",
    "dateCreation": "2017-01-01",
    "lat": 48.132021096,
    "lng": 5.1445077626
  },
  {
    "id": "53848950100014",
    "siret": "53848950100014",
    "siren": "538489501",
    "nom": "F.B.A",
    "adresse": "ZI DE BRAUX RUE DE LA PIERRE SAINT MARTIN 08120 BOGNY-SUR-MEUSE",
    "codePostal": "08120",
    "ville": "08081",
    "departement": "08",
    "codeApe": "23.61Z",
    "libelleApe": "",
    "trancheEffectifs": "12",
    "dateCreation": "2011-12-01",
    "lat": 49.845211513,
    "lng": 4.7745497119
  },
  {
    "id": "67688012300010",
    "siret": "67688012300010",
    "siren": "676880123",
    "nom": "ALSABLOC",
    "adresse": "12 RUE DES ROSES 67320 SIEWILLER",
    "codePostal": "67320",
    "ville": "67467",
    "departement": "67",
    "codeApe": "23.61Z",
    "libelleApe": "",
    "trancheEffectifs": "03",
    "dateCreation": "1968-01-01",
    "lat": 48.844233784,
    "lng": 7.2132231598
  },
  {
    "id": "68552059500016",
    "siret": "68552059500016",
    "siren": "685520595",
    "nom": "ELECTRO BETON",
    "adresse": "3 RTE DE CAMBRAI 59159 MARCOING",
    "codePostal": "59159",
    "ville": "59377",
    "departement": "59",
    "codeApe": "23.61Z",
    "libelleApe": "",
    "trancheEffectifs": "11",
    "dateCreation": "1955-01-01",
    "lat": 50.126908498,
    "lng": 3.1889675998
  },
  {
    "id": "72850231100018",
    "siret": "72850231100018",
    "siren": "728502311",
    "nom": "PIERRES TAILLEES HEITZ SARL",
    "adresse": "9 RUE DE LA SABLIERE 67240 KALTENHOUSE",
    "codePostal": "67240",
    "ville": "67230",
    "departement": "67",
    "codeApe": "23.61Z",
    "libelleApe": "",
    "trancheEffectifs": "03",
    "dateCreation": "1972-01-01",
    "lat": 48.787976254,
    "lng": 7.8256538546
  },
  {
    "id": "78949204800028",
    "siret": "78949204800028",
    "siren": "789492048",
    "nom": "VELIM DOMUM (MAMAISONECO)",
    "adresse": "1 RUE D'EN HAUT 02140 LANDOUZY-LA-VILLE",
    "codePostal": "02140",
    "ville": "02405",
    "departement": "02",
    "codeApe": "23.61Z",
    "libelleApe": "",
    "trancheEffectifs": "NN",
    "dateCreation": "2012-12-01",
    "lat": 49.861145834,
    "lng": 4.044986403
  },
  {
    "id": "30238288200025",
    "siret": "30238288200025",
    "siren": "302382882",
    "nom": "KLINGER ET FILS SARL",
    "adresse": "8 RUE DES ACACIAS 67410 DRUSENHEIM",
    "codePostal": "67410",
    "ville": "67106",
    "departement": "67",
    "codeApe": "23.61Z",
    "libelleApe": "",
    "trancheEffectifs": "NN",
    "dateCreation": "1975-01-01",
    "lat": 48.761026802956,
    "lng": 7.95412469063234
  },
  {
    "id": "81456235100043",
    "siret": "81456235100043",
    "siren": "814562351",
    "nom": "ACCIOME 08 (ACCIOME 08)",
    "adresse": "ZONE D ACTIVITES  BELLEVUE 08500 LES MAZURES",
    "codePostal": "08500",
    "ville": "08284",
    "departement": "08",
    "codeApe": "23.61Z",
    "libelleApe": "",
    "trancheEffectifs": "12",
    "dateCreation": "2015-11-01",
    "lat": 49.89439639,
    "lng": 4.6234869827
  },
  {
    "id": "81121975700010",
    "siret": "81121975700010",
    "siren": "811219757",
    "nom": "CAPREMIB BONNA SABLA",
    "adresse": "BP1 44 RTE NATIONALE 51220 CORMICY",
    "codePostal": "51220",
    "ville": "51171",
    "departement": "51",
    "codeApe": "23.61Z",
    "libelleApe": "",
    "trancheEffectifs": "NN",
    "dateCreation": "2015-01-01",
    "lat": 49.394046884,
    "lng": 3.9050816944
  },
  {
    "id": "32512286900036",
    "siret": "32512286900036",
    "siren": "325122869",
    "nom": "STAVEMARNE SA",
    "adresse": "24 RUE DES FRERES GARNIER 52000 CHAUMONT",
    "codePostal": "52000",
    "ville": "52121",
    "departement": "52",
    "codeApe": "23.61Z",
    "libelleApe": "",
    "trancheEffectifs": "11",
    "dateCreation": "1982-07-01",
    "lat": 48.115355169,
    "lng": 5.1037857409
  },
  {
    "id": "41189219300029",
    "siret": "41189219300029",
    "siren": "411892193",
    "nom": "EG PREFA",
    "adresse": "7 RUE DE LA PLAINE 68500 GUEBWILLER",
    "codePostal": "68500",
    "ville": "68112",
    "departement": "68",
    "codeApe": "23.61Z",
    "libelleApe": "",
    "trancheEffectifs": "11",
    "dateCreation": "1997-04-08",
    "lat": 47.898170834,
    "lng": 7.2298764996
  },
  {
    "id": "38376923900021",
    "siret": "38376923900021",
    "siren": "383769239",
    "nom": "SOFICO",
    "adresse": "3, 4, 5 3 RUE DE L'ORMICEE 55000 BAR-LE-DUC",
    "codePostal": "55000",
    "ville": "55029",
    "departement": "55",
    "codeApe": "23.61Z",
    "libelleApe": "",
    "trancheEffectifs": "11",
    "dateCreation": "1991-05-15",
    "lat": 48.78162323,
    "lng": 5.1549686659
  },
  {
    "id": "40389069200029",
    "siret": "40389069200029",
    "siren": "403890692",
    "nom": "PREFATEC SARL",
    "adresse": "ZONE D'ACTIVITES CHARNOIS RUE FRANCIS DE PRESSENCE 08170 FUMAY",
    "codePostal": "08170",
    "ville": "08185",
    "departement": "08",
    "codeApe": "23.61Z",
    "libelleApe": "",
    "trancheEffectifs": "11",
    "dateCreation": "1996-02-01",
    "lat": 49.986546904,
    "lng": 4.6864927681
  },
  {
    "id": "44951238300018",
    "siret": "44951238300018",
    "siren": "449512383",
    "nom": "URSA DEUTSCHLAND GMBH",
    "adresse": "D 04509 DELITZSCH CARL FRIEDRICH STRASSE 4 ALLEMAGNE",
    "codePostal": "",
    "ville": "",
    "departement": "",
    "codeApe": "23.61Z",
    "libelleApe": "",
    "trancheEffectifs": "NN",
    "dateCreation": "2003-07-01",
    "lat": null,
    "lng": null
  },
  {
    "id": "45191961700014",
    "siret": "45191961700014",
    "siren": "451919617",
    "nom": "FACIDAL",
    "adresse": "RTE DE ST DIE 88580 SAULCY-SUR-MEURTHE",
    "codePostal": "88580",
    "ville": "88445",
    "departement": "88",
    "codeApe": "23.61Z",
    "libelleApe": "",
    "trancheEffectifs": "02",
    "dateCreation": "2004-01-01",
    "lat": 48.248837136,
    "lng": 6.9579856898
  },
  {
    "id": "45216158100015",
    "siret": "45216158100015",
    "siren": "452161581",
    "nom": "MEGABLOC GMBH ET CO KG",
    "adresse": "72555 METZINGEN 19 ZIEGELSTRASSE ALLEMAGNE",
    "codePostal": "",
    "ville": "",
    "departement": "",
    "codeApe": "23.61Z",
    "libelleApe": "",
    "trancheEffectifs": "01",
    "dateCreation": "2004-01-01",
    "lat": null,
    "lng": null
  },
  {
    "id": "79443729300010",
    "siret": "79443729300010",
    "siren": "794437293",
    "nom": "SCHREIWEIS ART PRODUCTION",
    "adresse": "19 RUE PRINCIPALE 57230 LIEDERSCHIEDT",
    "codePostal": "57230",
    "ville": "57402",
    "departement": "57",
    "codeApe": "23.61Z",
    "libelleApe": "",
    "trancheEffectifs": "01",
    "dateCreation": "2013-07-01",
    "lat": 49.121457731,
    "lng": 7.4973298071
  },
  {
    "id": "83330415700013",
    "siret": "83330415700013",
    "siren": "833304157",
    "nom": "PROJECTISIM (DRESCH)",
    "adresse": "5 RUE DU WITTHOLZ 67340 INGWILLER",
    "codePostal": "67340",
    "ville": "67222",
    "departement": "67",
    "codeApe": "23.61Z",
    "libelleApe": "",
    "trancheEffectifs": "03",
    "dateCreation": "2017-11-07",
    "lat": 48.868072814,
    "lng": 7.472871328
  },
  {
    "id": "82850076900017",
    "siret": "82850076900017",
    "siren": "828500769",
    "nom": "KLINGLER FRERES",
    "adresse": "8 RUE DES ACACIAS 67410 DRUSENHEIM",
    "codePostal": "67410",
    "ville": "67106",
    "departement": "67",
    "codeApe": "23.61Z",
    "libelleApe": "",
    "trancheEffectifs": "02",
    "dateCreation": "2017-05-11",
    "lat": 48.761026802956,
    "lng": 7.95412469063234
  },
  {
    "id": "44052711700038",
    "siret": "44052711700038",
    "siren": "440527117",
    "nom": "SARL ALLIANCE DIAMANT",
    "adresse": "ZAC EUROMOSELLE SUD 18 RUE DE L’ETANG 57140 PLESNOIS",
    "codePostal": "57140",
    "ville": "57546",
    "departement": "57",
    "codeApe": "23.61Z",
    "libelleApe": "",
    "trancheEffectifs": "NN",
    "dateCreation": "2002-01-03",
    "lat": 49.173839387,
    "lng": 6.121525852
  },
  {
    "id": "41118700800015",
    "siret": "41118700800015",
    "siren": "411187008",
    "nom": "PATRICE LOLLI",
    "adresse": "LES INDES 11 ROUTE DE PARIS 51300 BLACY",
    "codePostal": "51300",
    "ville": "51065",
    "departement": "51",
    "codeApe": "23.61Z",
    "libelleApe": "",
    "trancheEffectifs": "01",
    "dateCreation": "1997-01-11",
    "lat": 48.7299838292984,
    "lng": 4.57302071366725
  },
  {
    "id": "41863003400027",
    "siret": "41863003400027",
    "siren": "418630034",
    "nom": "TARHAN ET FILS SARL",
    "adresse": "10 RUE EDOUARD BRANLY 68000 COLMAR",
    "codePostal": "68000",
    "ville": "68066",
    "departement": "68",
    "codeApe": "23.61Z",
    "libelleApe": "",
    "trancheEffectifs": "NN",
    "dateCreation": "1998-04-01",
    "lat": 48.091801556,
    "lng": 7.3768593705
  },
  {
    "id": "39527135600010",
    "siret": "39527135600010",
    "siren": "395271356",
    "nom": "LOSCH GMBH BETONWERKE",
    "adresse": "D 67355 LINGENFELD POSTFACH 1155 ALLEMAGNE",
    "codePostal": "",
    "ville": "",
    "departement": "",
    "codeApe": "23.61Z",
    "libelleApe": "",
    "trancheEffectifs": "NN",
    "dateCreation": "1994-05-01",
    "lat": null,
    "lng": null
  },
  {
    "id": "50762018500011",
    "siret": "50762018500011",
    "siren": "507620185",
    "nom": "DESIGN ET HABITAT SERVICES",
    "adresse": "18 RUE DE LA CHICHERIE 08310 JUNIVILLE",
    "codePostal": "08310",
    "ville": "08239",
    "departement": "08",
    "codeApe": "23.61Z",
    "libelleApe": "",
    "trancheEffectifs": "NN",
    "dateCreation": "2008-09-01",
    "lat": 49.394881175,
    "lng": 4.3765420461
  },
  {
    "id": "38471347500042",
    "siret": "38471347500042",
    "siren": "384713475",
    "nom": "REMAX STRUCTURES (DIETSCH & CIE)",
    "adresse": "63 RUE DE LA GARE 67240 OBERHOFFEN-SUR-MODER",
    "codePostal": "67240",
    "ville": "67345",
    "departement": "67",
    "codeApe": "23.61Z",
    "libelleApe": "",
    "trancheEffectifs": "01",
    "dateCreation": "1992-02-06",
    "lat": 48.788256526,
    "lng": 7.8552443992
  },
  {
    "id": "35110960800023",
    "siret": "35110960800023",
    "siren": "351109608",
    "nom": "J-MAT-CONCEPT",
    "adresse": "RTE DE LA GARE 54116 TANTONVILLE",
    "codePostal": "54116",
    "ville": "54513",
    "departement": "54",
    "codeApe": "23.61Z",
    "libelleApe": "",
    "trancheEffectifs": "02",
    "dateCreation": "1989-07-01",
    "lat": 48.48358875,
    "lng": 6.1287392872
  },
  {
    "id": "30725018300018",
    "siret": "30725018300018",
    "siren": "307250183",
    "nom": "BETON CONTROLE DE LA MORTAGNE",
    "adresse": "ZONE INDUSTRIELLE ROUTE D’AUTREY 88700 RAMBERVILLERS",
    "codePostal": "88700",
    "ville": "88367",
    "departement": "88",
    "codeApe": "23.61Z",
    "libelleApe": "",
    "trancheEffectifs": "21",
    "dateCreation": "1972-01-01",
    "lat": 48.33978231,
    "lng": 6.6552483045
  },
  {
    "id": "47907919600016",
    "siret": "47907919600016",
    "siren": "479079196",
    "nom": "COLLOMIX GMBH",
    "adresse": "GAIMERSHEIM DAIMLERSTRASSE ALLEMAGNE",
    "codePostal": "",
    "ville": "",
    "departement": "",
    "codeApe": "23.61Z",
    "libelleApe": "",
    "trancheEffectifs": "NN",
    "dateCreation": "2004-09-01",
    "lat": null,
    "lng": null
  },
  {
    "id": "44501871600016",
    "siret": "44501871600016",
    "siren": "445018716",
    "nom": "SARBETON",
    "adresse": "ROUTE DE HERBITZHEIM 67260 KESKASTEL",
    "codePostal": "67260",
    "ville": "67234",
    "departement": "67",
    "codeApe": "23.61Z",
    "libelleApe": "",
    "trancheEffectifs": "12",
    "dateCreation": "2002-06-01",
    "lat": 48.987248626,
    "lng": 7.0462174621
  },
  {
    "id": "44953440300018",
    "siret": "44953440300018",
    "siren": "449534403",
    "nom": "BETOMAX",
    "adresse": "SITE DE MICHEVILLE 57390 RUSSANGE",
    "codePostal": "57390",
    "ville": "57603",
    "departement": "57",
    "codeApe": "23.61Z",
    "libelleApe": "",
    "trancheEffectifs": "NN",
    "dateCreation": "2003-06-24",
    "lat": 49.477647,
    "lng": 5.9480537924
  },
  {
    "id": "34312508400016",
    "siret": "34312508400016",
    "siren": "343125084",
    "nom": "KRONIMUS",
    "adresse": "ROUTE DE MARANGE 57280 MAIZIERES-LES-METZ",
    "codePostal": "57280",
    "ville": "57433",
    "departement": "57",
    "codeApe": "23.61Z",
    "libelleApe": "",
    "trancheEffectifs": "21",
    "dateCreation": "1987-12-07",
    "lat": 49.208959555,
    "lng": 6.1521672828
  },
  {
    "id": "33036714500019",
    "siret": "33036714500019",
    "siren": "330367145",
    "nom": "BETON CONTROLE DU SEEBODEN",
    "adresse": "1 RUE DE KINGERSHEIM 68120 RICHWILLER",
    "codePostal": "68120",
    "ville": "68270",
    "departement": "68",
    "codeApe": "23.61Z",
    "libelleApe": "",
    "trancheEffectifs": "21",
    "dateCreation": "1984-07-01",
    "lat": 47.787678802,
    "lng": 7.2885622368
  },
  {
    "id": "33474921500037",
    "siret": "33474921500037",
    "siren": "334749215",
    "nom": "ENTREPRISE VAL BETON MOULE DE L'EST (EVBME)",
    "adresse": "LD LES SABLIERES 57175 GANDRANGE",
    "codePostal": "57175",
    "ville": "57242",
    "departement": "57",
    "codeApe": "23.61Z",
    "libelleApe": "",
    "trancheEffectifs": "11",
    "dateCreation": "1986-02-03",
    "lat": 49.281025025,
    "lng": 6.1282436965
  },
  {
    "id": "90998348800018",
    "siret": "90998348800018",
    "siren": "909983488",
    "nom": "BETON DE L'EST",
    "adresse": "20 ZI DE LA PLAINE 88130 CHARMES",
    "codePostal": "88130",
    "ville": "88090",
    "departement": "88",
    "codeApe": "23.61Z",
    "libelleApe": "",
    "trancheEffectifs": "03",
    "dateCreation": "2022-02-01",
    "lat": 48.388021387,
    "lng": 6.2676928887
  },
  {
    "id": "51062585800012",
    "siret": "51062585800012",
    "siren": "510625858",
    "nom": "PREFA 57",
    "adresse": "69 ROUTE DE THIONVILLE 57280 MAIZIERES-LES-METZ",
    "codePostal": "57280",
    "ville": "57433",
    "departement": "57",
    "codeApe": "23.61Z",
    "libelleApe": "",
    "trancheEffectifs": "01",
    "dateCreation": "2009-01-05",
    "lat": 49.221029035,
    "lng": 6.1635412398
  },
  {
    "id": "84899756500017",
    "siret": "84899756500017",
    "siren": "848997565",
    "nom": "MB PREFA",
    "adresse": "11 RUE DE LA CHATAIGNE 57280 HAUCONCOURT",
    "codePostal": "57280",
    "ville": "57303",
    "departement": "57",
    "codeApe": "23.61Z",
    "libelleApe": "",
    "trancheEffectifs": "01",
    "dateCreation": "2019-02-20",
    "lat": 49.2022727597517,
    "lng": 6.18183798689885
  },
  {
    "id": "82362370700036",
    "siret": "82362370700036",
    "siren": "823623707",
    "nom": "RAPIDO' BLOC (RAPIDO'BLOC)",
    "adresse": "23 RUE MARCEL CACHIN 51260 SAINT-JUST-SAUVAGE",
    "codePostal": "51260",
    "ville": "51492",
    "departement": "51",
    "codeApe": "23.61Z",
    "libelleApe": "",
    "trancheEffectifs": "01",
    "dateCreation": "2016-10-05",
    "lat": 48.5386250027333,
    "lng": 3.75161789289486
  },
  {
    "id": "81794856500012",
    "siret": "81794856500012",
    "siren": "817948565",
    "nom": "ICFA",
    "adresse": "32 RUE EDOUARD BRANLY 68000 COLMAR",
    "codePostal": "68000",
    "ville": "68066",
    "departement": "68",
    "codeApe": "23.61Z",
    "libelleApe": "",
    "trancheEffectifs": "NN",
    "dateCreation": "2016-01-12",
    "lat": 48.095969665,
    "lng": 7.3806121128
  },
  {
    "id": "81965796600027",
    "siret": "81965796600027",
    "siren": "819657966",
    "nom": "DELMAR PRODUCTION",
    "adresse": "RUE FONTAINE ST MARTIN 10120 SAINT ANDRE LES VERGERS",
    "codePostal": "10120",
    "ville": "10333",
    "departement": "10",
    "codeApe": "23.61Z",
    "libelleApe": "",
    "trancheEffectifs": "03",
    "dateCreation": "2016-04-12",
    "lat": 48.26918155,
    "lng": 4.0457329132
  },
  {
    "id": "92324843900013",
    "siret": "92324843900013",
    "siren": "923248439",
    "nom": "CHAMOIN",
    "adresse": "1 CHEMIN DU REVERS DU CLOS 10260 VILLEMOYENNE",
    "codePostal": "10260",
    "ville": "10419",
    "departement": "10",
    "codeApe": "23.61Z",
    "libelleApe": "",
    "trancheEffectifs": "01",
    "dateCreation": "2023-03-17",
    "lat": 48.179046961,
    "lng": 4.2331298032
  },
  {
    "id": "98086521600017",
    "siret": "98086521600017",
    "siren": "980865216",
    "nom": "RECYCL@RDENNES",
    "adresse": "9 RUE DE LORRAINE 08370 MARGUT",
    "codePostal": "08370",
    "ville": "08276",
    "departement": "08",
    "codeApe": "23.61Z",
    "libelleApe": "",
    "trancheEffectifs": "NN",
    "dateCreation": "2023-09-19",
    "lat": 49.587450978,
    "lng": 5.262291692
  },
  {
    "id": "83156958700015",
    "siret": "83156958700015",
    "siren": "831569587",
    "nom": "SOCIETE DE PREFABRICATION MOSELLANE",
    "adresse": "11 RUE DES BLEUETS 57530 OGY-MONTOY-FLANVILLE",
    "codePostal": "57530",
    "ville": "57482",
    "departement": "57",
    "codeApe": "23.61Z",
    "libelleApe": "",
    "trancheEffectifs": "NN",
    "dateCreation": "2017-08-20",
    "lat": 49.117342458,
    "lng": 6.2642703767
  },
  {
    "id": "41481504303184",
    "siret": "41481504303184",
    "siren": "414815043",
    "nom": "LAFARGE BETONS",
    "adresse": "14-16 14 BOULEVARD GARIBALDI 92130 ISSY-LES-MOULINEAUX",
    "codePostal": "92130",
    "ville": "92040",
    "departement": "92",
    "codeApe": "23.63Z",
    "libelleApe": "",
    "trancheEffectifs": "42",
    "dateCreation": "1997-12-15",
    "lat": 48.8225713800445,
    "lng": 2.26162828787134
  },
  {
    "id": "64201616603673",
    "siret": "64201616603673",
    "siren": "642016166",
    "nom": "HEIDELBERG MATERIALS FRANCE BETONS (HM FRANCE BETONS)",
    "adresse": "TOUR ALTO 4 PLACE DES SAISONS 92400 COURBEVOIE",
    "codePostal": "92400",
    "ville": "92026",
    "departement": "92",
    "codeApe": "23.63Z",
    "libelleApe": "",
    "trancheEffectifs": "41",
    "dateCreation": "1900-01-01",
    "lat": 48.8893520671003,
    "lng": 2.25127448746517
  },
  {
    "id": "30991846400160",
    "siret": "30991846400160",
    "siren": "309918464",
    "nom": "BETON VICAT",
    "adresse": "LES TROIS VALLONS 4 RUE ARISTIDE BERGES 38080 L'ISLE-D'ABEAU",
    "codePostal": "38080",
    "ville": "38193",
    "departement": "38",
    "codeApe": "23.63Z",
    "libelleApe": "",
    "trancheEffectifs": "32",
    "dateCreation": "1977-01-01",
    "lat": 45.6060032961466,
    "lng": 5.21769488683487
  },
  {
    "id": "94555054901723",
    "siret": "94555054901723",
    "siren": "945550549",
    "nom": "EQIOM BETONS",
    "adresse": "COLISEE GARDENS 10 AVENUE DE L'ARCHE 92400 COURBEVOIE",
    "codePostal": "92400",
    "ville": "92026",
    "departement": "92",
    "codeApe": "23.63Z",
    "libelleApe": "",
    "trancheEffectifs": "32",
    "dateCreation": "1955-01-01",
    "lat": 48.8954790538768,
    "lng": 2.23883737139983
  },
  {
    "id": "39916157900574",
    "siret": "39916157900574",
    "siren": "399161579",
    "nom": "CEMEX BETONS SUD EST",
    "adresse": "13 RUE DU CAPRICORNE 94150 RUNGIS",
    "codePostal": "94150",
    "ville": "94065",
    "departement": "94",
    "codeApe": "23.63Z",
    "libelleApe": "",
    "trancheEffectifs": "22",
    "dateCreation": "1994-12-02",
    "lat": 48.7435982378666,
    "lng": 2.35891633420147
  },
  {
    "id": "35006422600243",
    "siret": "35006422600243",
    "siren": "350064226",
    "nom": "BETON DES MONTS DU LYONNAIS (BML)",
    "adresse": "25 CHEMIN DE LA RENAUDIERE 69850 SAINT-MARTIN-EN-HAUT",
    "codePostal": "69850",
    "ville": "69227",
    "departement": "69",
    "codeApe": "23.63Z",
    "libelleApe": "",
    "trancheEffectifs": "22",
    "dateCreation": "1989-03-10",
    "lat": 45.654550507,
    "lng": 4.5393910201
  },
  {
    "id": "40015153600754",
    "siret": "40015153600754",
    "siren": "400151536",
    "nom": "CEMEX BETONS RHONE-ALPES",
    "adresse": "13 RUE DU CAPRICORNE 94150 RUNGIS",
    "codePostal": "94150",
    "ville": "94065",
    "departement": "94",
    "codeApe": "23.63Z",
    "libelleApe": "",
    "trancheEffectifs": "21",
    "dateCreation": "1995-03-01",
    "lat": 48.7435982378666,
    "lng": 2.35891633420147
  },
  {
    "id": "79440955700046",
    "siret": "79440955700046",
    "siren": "794409557",
    "nom": "BETON SOLUTIONS MOBILES",
    "adresse": "D'ACTIVITES DE PARIS-EST 9 ALLEE LECH WALESA 77185 LOGNES",
    "codePostal": "77185",
    "ville": "77258",
    "departement": "77",
    "codeApe": "23.63Z",
    "libelleApe": "",
    "trancheEffectifs": "22",
    "dateCreation": "2013-07-12",
    "lat": 48.826977336,
    "lng": 2.6243207455
  },
  {
    "id": "44036026100018",
    "siret": "44036026100018",
    "siren": "440360261",
    "nom": "ETS FRANCOIS INDUSTRIE",
    "adresse": "LA PRIMAUBE 109 AVENUE DE RODEZ 12450 LUC-LA-PRIMAUBE",
    "codePostal": "12450",
    "ville": "12133",
    "departement": "12",
    "codeApe": "23.63Z",
    "libelleApe": "",
    "trancheEffectifs": "21",
    "dateCreation": "2001-12-28",
    "lat": 44.302226519,
    "lng": 2.5555956962
  },
  {
    "id": "79307315600101",
    "siret": "79307315600101",
    "siren": "793073156",
    "nom": "RESEAU CHAPE",
    "adresse": "4 IMPASSE DES GRANGES 38290 LA VERPILLIERE",
    "codePostal": "38290",
    "ville": "38537",
    "departement": "38",
    "codeApe": "23.63Z",
    "libelleApe": "",
    "trancheEffectifs": "12",
    "dateCreation": "2013-05-06",
    "lat": 45.6442821377529,
    "lng": 5.13369386508871
  },
  {
    "id": "34039831200017",
    "siret": "34039831200017",
    "siren": "340398312",
    "nom": "DELMONICO DOREL BETON (DDF)",
    "adresse": "4 RD 132 LA RAVICOLE 26140 ANDANCETTE",
    "codePostal": "26140",
    "ville": "26009",
    "departement": "26",
    "codeApe": "23.63Z",
    "libelleApe": "",
    "trancheEffectifs": "11",
    "dateCreation": "1987-01-02",
    "lat": 45.24089146,
    "lng": 4.8181664473
  },
  {
    "id": "88393460600020",
    "siret": "88393460600020",
    "siren": "883934606",
    "nom": "3B",
    "adresse": "35 AVENUE ARISTIDE BERGES 38420 DOMENE",
    "codePostal": "38420",
    "ville": "38150",
    "departement": "38",
    "codeApe": "23.63Z",
    "libelleApe": "",
    "trancheEffectifs": "12",
    "dateCreation": "2020-06-05",
    "lat": 45.198047238,
    "lng": 5.8192603566
  },
  {
    "id": "75213661400019",
    "siret": "75213661400019",
    "siren": "752136614",
    "nom": "SOCIETE D EXPLOITATION DES BETONS MARTEL-SEBM",
    "adresse": "D AFRIQUE DU NORD 26 RUE ANCIENS COMBATTANTS AFRIQUE NORD 69720 SAINT-LAURENT-DE-MURE",
    "codePostal": "69720",
    "ville": "69288",
    "departement": "69",
    "codeApe": "23.63Z",
    "libelleApe": "",
    "trancheEffectifs": "12",
    "dateCreation": "2012-05-23",
    "lat": 45.686929968,
    "lng": 5.0536209872
  },
  {
    "id": "43588004200047",
    "siret": "43588004200047",
    "siren": "435880042",
    "nom": "ENTREPRISE GENTIAL ET FILS",
    "adresse": "285 CHEMIN DE ROUSSET 26320 SAINT-MARCEL-LES-VALENCE",
    "codePostal": "26320",
    "ville": "26313",
    "departement": "26",
    "codeApe": "23.63Z",
    "libelleApe": "",
    "trancheEffectifs": "12",
    "dateCreation": "1958-01-01",
    "lat": 44.961975512,
    "lng": 4.9450418463
  },
  {
    "id": "43313922700055",
    "siret": "43313922700055",
    "siren": "433139227",
    "nom": "ALP'BETON",
    "adresse": "28 RUE DES TATTES 74380 NANGY",
    "codePostal": "74380",
    "ville": "74197",
    "departement": "74",
    "codeApe": "23.63Z",
    "libelleApe": "",
    "trancheEffectifs": "12",
    "dateCreation": "2000-09-01",
    "lat": 46.1539876321211,
    "lng": 6.29677379922419
  },
  {
    "id": "53363395400011",
    "siret": "53363395400011",
    "siren": "533633954",
    "nom": "BETON 05 VICAT",
    "adresse": "LES MANES 05130 JARJAYES",
    "codePostal": "05130",
    "ville": "05068",
    "departement": "05",
    "codeApe": "23.63Z",
    "libelleApe": "",
    "trancheEffectifs": "03",
    "dateCreation": "2011-07-01",
    "lat": 44.47840466,
    "lng": 6.0939533656
  },
  {
    "id": "33136472900011",
    "siret": "33136472900011",
    "siren": "331364729",
    "nom": "ESCOLLE BETON",
    "adresse": "17 RUE DU LAC 38120 SAINT-EGREVE",
    "codePostal": "38120",
    "ville": "38382",
    "departement": "38",
    "codeApe": "23.63Z",
    "libelleApe": "",
    "trancheEffectifs": "12",
    "dateCreation": "1985-01-01",
    "lat": 45.235175286,
    "lng": 5.6653051842
  },
  {
    "id": "41473140600016",
    "siret": "41473140600016",
    "siren": "414731406",
    "nom": "PLATTARD BETON",
    "adresse": "414 AVENUE DE LA PLAGE 69400 VILLEFRANCHE-SUR-SAONE",
    "codePostal": "69400",
    "ville": "69264",
    "departement": "69",
    "codeApe": "23.63Z",
    "libelleApe": "",
    "trancheEffectifs": "12",
    "dateCreation": "1997-12-09",
    "lat": 45.979648457,
    "lng": 4.7461625661
  },
  {
    "id": "34805895900068",
    "siret": "34805895900068",
    "siren": "348058959",
    "nom": "GACHET BETON (GACHET BETON)",
    "adresse": "121 ALLEE DES ACACIAS 38260 CHAMPIER",
    "codePostal": "38260",
    "ville": "38069",
    "departement": "38",
    "codeApe": "23.63Z",
    "libelleApe": "",
    "trancheEffectifs": "12",
    "dateCreation": "1988-10-01",
    "lat": 45.4555262615615,
    "lng": 5.29259984179193
  },
  {
    "id": "51193171900013",
    "siret": "51193171900013",
    "siren": "511931719",
    "nom": "CARRIERES DODET (CARRIERES DODET)",
    "adresse": "465 ROUTE DU PRAT 07330 THUEYTS",
    "codePostal": "07330",
    "ville": "07322",
    "departement": "07",
    "codeApe": "23.63Z",
    "libelleApe": "",
    "trancheEffectifs": "12",
    "dateCreation": "2009-04-16",
    "lat": 44.684577144974,
    "lng": 4.23485885348117
  },
  {
    "id": "51880232700032",
    "siret": "51880232700032",
    "siren": "518802327",
    "nom": "CECCON BETON CARRIERES",
    "adresse": "CS 70022 ZAC DE LA BOUVAR 5 ALLEE DE LA MANDALLAZ 74370 EPAGNY METZ-TESSY",
    "codePostal": "74370",
    "ville": "74112",
    "departement": "74",
    "codeApe": "23.63Z",
    "libelleApe": "",
    "trancheEffectifs": "03",
    "dateCreation": "2009-12-07",
    "lat": 45.9347579632564,
    "lng": 6.1158689551228
  },
  {
    "id": "52791676100028",
    "siret": "52791676100028",
    "siren": "527916761",
    "nom": "CHEVAL BETON (CHEVAL DROME BETON)",
    "adresse": "ALLEE DE L’HERMITAGE 26300 BOURG-DE-PEAGE",
    "codePostal": "26300",
    "ville": "26057",
    "departement": "26",
    "codeApe": "23.63Z",
    "libelleApe": "",
    "trancheEffectifs": "03",
    "dateCreation": "2010-10-01",
    "lat": 45.014905016,
    "lng": 5.02894305
  },
  {
    "id": "48502714800017",
    "siret": "48502714800017",
    "siren": "485027148",
    "nom": "BETON SERVICE LOIRE",
    "adresse": "1477 RUE DE LA TORANCHE 42210 SAINT-LAURENT-LA-CONCHE",
    "codePostal": "42210",
    "ville": "42251",
    "departement": "42",
    "codeApe": "23.63Z",
    "libelleApe": "",
    "trancheEffectifs": "12",
    "dateCreation": "2005-11-01",
    "lat": 45.683797083,
    "lng": 4.2278277177
  },
  {
    "id": "39935490100049",
    "siret": "39935490100049",
    "siren": "399354901",
    "nom": "SOCIETE DES BASALTES DU CENTRE",
    "adresse": "ZI DU BREZET 5 RUE BERNARD PALISSY 63100 CLERMONT-FERRAND",
    "codePostal": "63100",
    "ville": "63113",
    "departement": "63",
    "codeApe": "23.63Z",
    "libelleApe": "",
    "trancheEffectifs": "11",
    "dateCreation": "1994-01-01",
    "lat": 45.78930948,
    "lng": 3.1364644949
  },
  {
    "id": "38106098700017",
    "siret": "38106098700017",
    "siren": "381060987",
    "nom": "BETON +",
    "adresse": "CD 102 RTE DE LA FOUILLOUS PRES FURAN 42170 SAINT-JUST-SAINT-RAMBERT",
    "codePostal": "42170",
    "ville": "42279",
    "departement": "42",
    "codeApe": "23.63Z",
    "libelleApe": "",
    "trancheEffectifs": "11",
    "dateCreation": "1991-02-25",
    "lat": 45.509886255,
    "lng": 4.2757911509
  },
  {
    "id": "81449174200015",
    "siret": "81449174200015",
    "siren": "814491742",
    "nom": "LES BETONS DU REVERMONT",
    "adresse": "ZI LES PRES GIRARD 39160 SAINT-AMOUR",
    "codePostal": "39160",
    "ville": "39475",
    "departement": "39",
    "codeApe": "23.63Z",
    "libelleApe": "",
    "trancheEffectifs": "03",
    "dateCreation": "2015-07-28",
    "lat": 46.44231103,
    "lng": 5.3378161286
  },
  {
    "id": "81502433600019",
    "siret": "81502433600019",
    "siren": "815024336",
    "nom": "ALLIANCE CHAPES",
    "adresse": "QUARTIER GARE RD 1075 - LD LA COTE 01500 AMBRONAY",
    "codePostal": "01500",
    "ville": "01007",
    "departement": "01",
    "codeApe": "23.63Z",
    "libelleApe": "",
    "trancheEffectifs": "02",
    "dateCreation": "2015-11-01",
    "lat": 46.020899341,
    "lng": 5.349650957
  },
  {
    "id": "84456629900039",
    "siret": "84456629900039",
    "siren": "844566299",
    "nom": "CECCON BETON VOVRAY",
    "adresse": "4 RUE ARISTIDE BERGES 38080 L'ISLE-D'ABEAU",
    "codePostal": "38080",
    "ville": "38193",
    "departement": "38",
    "codeApe": "23.63Z",
    "libelleApe": "",
    "trancheEffectifs": "NN",
    "dateCreation": "2018-12-03",
    "lat": 45.6060032961466,
    "lng": 5.21769488683487
  },
  {
    "id": "33355698300026",
    "siret": "33355698300026",
    "siren": "333556983",
    "nom": "LEMAN BETON",
    "adresse": "20 BOULEVARD DU ROYAL 74500 EVIAN-LES-BAINS",
    "codePostal": "74500",
    "ville": "74119",
    "departement": "74",
    "codeApe": "23.63Z",
    "libelleApe": "",
    "trancheEffectifs": "11",
    "dateCreation": "1985-09-01",
    "lat": 46.396115565,
    "lng": 6.5847510695
  },
  {
    "id": "33358398700032",
    "siret": "33358398700032",
    "siren": "333583987",
    "nom": "ADIMAT (ADIMAT)",
    "adresse": "RN 198 LD NIELUCCIO 20240 GHISONACCIA",
    "codePostal": "20240",
    "ville": "2B123",
    "departement": "2B",
    "codeApe": "23.63Z",
    "libelleApe": "",
    "trancheEffectifs": "11",
    "dateCreation": "1985-08-01",
    "lat": 42.023510593,
    "lng": 9.4138766725
  },
  {
    "id": "79708025600028",
    "siret": "79708025600028",
    "siren": "797080256",
    "nom": "SA CHABLAIS-BETON",
    "adresse": "ZONE INDUSTRIELLE DE VONGY 11 RUE DES ARCOUASSES 74200 THONON-LES-BAINS",
    "codePostal": "74200",
    "ville": "74281",
    "departement": "74",
    "codeApe": "23.63Z",
    "libelleApe": "",
    "trancheEffectifs": "11",
    "dateCreation": "1970-01-01",
    "lat": 46.393993561,
    "lng": 6.5083934378
  },
  {
    "id": "77907317000010",
    "siret": "77907317000010",
    "siren": "779073170",
    "nom": "STE CANTALIENNE MATER CONSTR (SOCAMAC)",
    "adresse": "83 AVENUE DE CONTHE 15000 AURILLAC",
    "codePostal": "15000",
    "ville": "15014",
    "departement": "15",
    "codeApe": "23.63Z",
    "libelleApe": "",
    "trancheEffectifs": "12",
    "dateCreation": "1900-01-01",
    "lat": 44.912571697,
    "lng": 2.4255861554
  },
  {
    "id": "30956603200012",
    "siret": "30956603200012",
    "siren": "309566032",
    "nom": "GAVEND CARRIERES",
    "adresse": "LA CRAZ 580 ROUTE DE SAINTE-MARIE-D’ALVEY 73240 ROCHEFORT",
    "codePostal": "73240",
    "ville": "73214",
    "departement": "73",
    "codeApe": "23.63Z",
    "libelleApe": "",
    "trancheEffectifs": "01",
    "dateCreation": "1977-01-01",
    "lat": 45.583258592,
    "lng": 5.7259164468
  },
  {
    "id": "32910869000036",
    "siret": "32910869000036",
    "siren": "329108690",
    "nom": "MEYNET BETON SAS",
    "adresse": "LES TROIS VALLONS 4 RUE ARISTIDE BERGES 38080 L'ISLE-D'ABEAU",
    "codePostal": "38080",
    "ville": "38193",
    "departement": "38",
    "codeApe": "23.63Z",
    "libelleApe": "",
    "trancheEffectifs": "11",
    "dateCreation": "1984-01-01",
    "lat": 45.6060032961466,
    "lng": 5.21769488683487
  },
  {
    "id": "40513149100038",
    "siret": "40513149100038",
    "siren": "405131491",
    "nom": "BETONS DELAIRE",
    "adresse": "786 RUE DES VERNES 42155 LENTIGNY",
    "codePostal": "42155",
    "ville": "42120",
    "departement": "42",
    "codeApe": "23.63Z",
    "libelleApe": "",
    "trancheEffectifs": "02",
    "dateCreation": "1996-03-01",
    "lat": 45.989131522771,
    "lng": 3.98036501909771
  },
  {
    "id": "39101393500021",
    "siret": "39101393500021",
    "siren": "391013935",
    "nom": "SFAG",
    "adresse": "LD LES BLACHERES 73130 SAINT-AVRE",
    "codePostal": "73130",
    "ville": "73224",
    "departement": "73",
    "codeApe": "23.63Z",
    "libelleApe": "",
    "trancheEffectifs": "01",
    "dateCreation": "1993-04-23",
    "lat": 45.345437345,
    "lng": 6.3100265699
  },
  {
    "id": "91797588000019",
    "siret": "91797588000019",
    "siren": "917975880",
    "nom": "BETON CHAPE TARENTAISE (BETON CHAPE TARENTAISE)",
    "adresse": "4 RUE ARISTIDE BERGES 38080 L'ISLE-D'ABEAU",
    "codePostal": "38080",
    "ville": "38193",
    "departement": "38",
    "codeApe": "23.63Z",
    "libelleApe": "",
    "trancheEffectifs": "01",
    "dateCreation": "2022-07-27",
    "lat": 45.6060032961466,
    "lng": 5.21769488683487
  },